[{"id":1,"job_title":"Design Engineer","address":"49553 Vidon Point","latitude":12.4069994,"longitude":4.647618,"company":"Cartwright, Vandervort and Willms","description":"In hac habitasse platea dictumst. Morbi vestibulum, velit id pretium iaculis, diam erat fermentum justo, nec condimentum neque sapien placerat ante. Nulla justo.","salary":"$126706.79","skills":"Business Owner Planning"},
{"id":2,"job_title":"Automation Specialist II","address":"25248 Main Trail","latitude":6.4387946,"longitude":100.1947477,"company":"Thompson Group","description":"Cras non velit nec nisi vulputate nonummy. Maecenas tincidunt lacus at velit. Vivamus vel nulla eget eros elementum pellentesque.\n\nQuisque porta volutpat erat. Quisque erat eros, viverra eget, congue eget, semper rutrum, nulla. Nunc purus.","salary":"$297843.98","skills":"mTAB"},
{"id":3,"job_title":"Programmer Analyst III","address":"3775 Blackbird Street","latitude":41.0919871,"longitude":-7.8038268,"company":"Murray, Ernser and Walter","description":"Aliquam quis turpis eget elit sodales scelerisque. Mauris sit amet eros. Suspendisse accumsan tortor quis turpis.\n\nSed ante. Vivamus tortor. Duis mattis egestas metus.\n\nAenean fermentum. Donec ut mauris eget massa tempor convallis. Nulla neque libero, convallis eget, eleifend luctus, ultricies eu, nibh.","salary":"$121015.30","skills":"HUET"},
{"id":4,"job_title":"VP Accounting","address":"4 Mitchell Crossing","latitude":-6.6409658,"longitude":106.8030892,"company":"Anderson, Hickle and Gleason","description":"Duis bibendum, felis sed interdum venenatis, turpis enim blandit mi, in porttitor pede justo eu massa. Donec dapibus. Duis at velit eu est congue elementum.\n\nIn hac habitasse platea dictumst. Morbi vestibulum, velit id pretium iaculis, diam erat fermentum justo, nec condimentum neque sapien placerat ante. Nulla justo.","salary":"$225769.50","skills":"Non-compete Agreements"},
{"id":5,"job_title":"VP Quality Control","address":"83048 Brickson Park Road","latitude":49.2215531,"longitude":16.2941515,"company":"Witting, Schumm and Rodriguez","description":"Sed ante. Vivamus tortor. Duis mattis egestas metus.\n\nAenean fermentum. Donec ut mauris eget massa tempor convallis. Nulla neque libero, convallis eget, eleifend luctus, ultricies eu, nibh.","salary":"$113784.60","skills":"Eye Treatments"},
{"id":6,"job_title":"Help Desk Operator","address":"663 Mockingbird Lane","latitude":-34.7097222,"longitude":-58.3240611,"company":"Nolan, Littel and Barrows","description":"Curabitur gravida nisi at nibh. In hac habitasse platea dictumst. Aliquam augue quam, sollicitudin vitae, consectetuer eget, rutrum at, lorem.\n\nInteger tincidunt ante vel ipsum. Praesent blandit lacinia erat. Vestibulum sed magna at nunc commodo placerat.","salary":"$293503.77","skills":"Vocational Rehabilitation"},
{"id":7,"job_title":"Recruiter","address":"45 Kingsford Place","latitude":57.8552975,"longitude":24.3530817,"company":"Abshire, Willms and Smith","description":"Aenean lectus. Pellentesque eget nunc. Donec quis orci eget orci vehicula condimentum.\n\nCurabitur in libero ut massa volutpat convallis. Morbi odio odio, elementum eu, interdum eu, tincidunt in, leo. Maecenas pulvinar lobortis est.","salary":"$90610.99","skills":"Microsoft Project"},
{"id":8,"job_title":"Information Systems Manager","address":"04 Rutledge Place","latitude":48.9352465,"longitude":2.3458952,"company":"Yundt Group","description":"Maecenas leo odio, condimentum id, luctus nec, molestie sed, justo. Pellentesque viverra pede ac diam. Cras pellentesque volutpat dui.\n\nMaecenas tristique, est et tempus semper, est quam pharetra magna, ac consequat metus sapien ut nunc. Vestibulum ante ipsum primis in faucibus orci luctus et ultrices posuere cubilia Curae; Mauris viverra diam vitae quam. Suspendisse potenti.\n\nNullam porttitor lacus at turpis. Donec posuere metus vitae ipsum. Aliquam non mauris.","salary":"$45098.62","skills":"Ideas Development"},
{"id":9,"job_title":"Structural Engineer","address":"52 Mandrake Street","latitude":56.4428126,"longitude":59.129251,"company":"Wolf, Ondricka and Herman","description":"Nullam sit amet turpis elementum ligula vehicula consequat. Morbi a ipsum. Integer a nibh.\n\nIn quis justo. Maecenas rhoncus aliquam lacus. Morbi quis tortor id nulla ultrices aliquet.\n\nMaecenas leo odio, condimentum id, luctus nec, molestie sed, justo. Pellentesque viverra pede ac diam. Cras pellentesque volutpat dui.","salary":"$189557.06","skills":"Community Organizing"},
{"id":10,"job_title":"Product Engineer","address":"67710 Mccormick Way","latitude":-6.9945321,"longitude":112.3918934,"company":"Hilpert-Friesen","description":"Cras mi pede, malesuada in, imperdiet et, commodo vulputate, justo. In blandit ultrices enim. Lorem ipsum dolor sit amet, consectetuer adipiscing elit.\n\nProin interdum mauris non ligula pellentesque ultrices. Phasellus id sapien in sapien iaculis congue. Vivamus metus arcu, adipiscing molestie, hendrerit at, vulputate vitae, nisl.","salary":"$128727.82","skills":"EEPROM"},
{"id":11,"job_title":"Assistant Media Planner","address":"08 Loeprich Court","latitude":28.643587,"longitude":115.568583,"company":"Haag-Sporer","description":"Etiam vel augue. Vestibulum rutrum rutrum neque. Aenean auctor gravida sem.\n\nPraesent id massa id nisl venenatis lacinia. Aenean sit amet justo. Morbi ut odio.","salary":"$173598.29","skills":"Shrinkage"},
{"id":12,"job_title":"Quality Control Specialist","address":"4443 Ohio Terrace","latitude":43.4471085,"longitude":17.2139989,"company":"Erdman and Sons","description":"Duis aliquam convallis nunc. Proin at turpis a pede posuere nonummy. Integer non velit.\n\nDonec diam neque, vestibulum eget, vulputate ut, ultrices vel, augue. Vestibulum ante ipsum primis in faucibus orci luctus et ultrices posuere cubilia Curae; Donec pharetra, magna vestibulum aliquet ultrices, erat tortor sollicitudin mi, sit amet lobortis sapien sapien non mi. Integer ac neque.","salary":"$191976.85","skills":"Siding"},
{"id":13,"job_title":"Accountant IV","address":"922 Glendale Circle","latitude":17.4561766,"longitude":50.580869,"company":"Kovacek, Littel and Casper","description":"Donec diam neque, vestibulum eget, vulputate ut, ultrices vel, augue. Vestibulum ante ipsum primis in faucibus orci luctus et ultrices posuere cubilia Curae; Donec pharetra, magna vestibulum aliquet ultrices, erat tortor sollicitudin mi, sit amet lobortis sapien sapien non mi. Integer ac neque.\n\nDuis bibendum. Morbi non quam nec dui luctus rutrum. Nulla tellus.\n\nIn sagittis dui vel nisl. Duis ac nibh. Fusce lacus purus, aliquet at, feugiat non, pretium quis, lectus.","salary":"$137275.15","skills":"LS9"},
{"id":14,"job_title":"Database Administrator I","address":"33 Randy Alley","latitude":49.4904742,"longitude":11.0986834,"company":"Blanda LLC","description":"Aliquam quis turpis eget elit sodales scelerisque. Mauris sit amet eros. Suspendisse accumsan tortor quis turpis.","salary":"$217687.60","skills":"Lyris"},
{"id":15,"job_title":"Mechanical Systems Engineer","address":"02027 Mccormick Alley","latitude":40.210071,"longitude":119.710719,"company":"Cremin and Sons","description":"In hac habitasse platea dictumst. Morbi vestibulum, velit id pretium iaculis, diam erat fermentum justo, nec condimentum neque sapien placerat ante. Nulla justo.\n\nAliquam quis turpis eget elit sodales scelerisque. Mauris sit amet eros. Suspendisse accumsan tortor quis turpis.","salary":"$260902.07","skills":"GML"},
{"id":16,"job_title":"Software Consultant","address":"184 Stuart Road","latitude":23.178828,"longitude":113.297291,"company":"Labadie, Lubowitz and Parisian","description":"Morbi non lectus. Aliquam sit amet diam in magna bibendum imperdiet. Nullam orci pede, venenatis non, sodales sed, tincidunt eu, felis.","salary":"$106257.26","skills":"HBA"},
{"id":17,"job_title":"General Manager","address":"2 Lien Point","latitude":14.4693883,"longitude":121.0059518,"company":"Streich Group","description":"Sed ante. Vivamus tortor. Duis mattis egestas metus.\n\nAenean fermentum. Donec ut mauris eget massa tempor convallis. Nulla neque libero, convallis eget, eleifend luctus, ultricies eu, nibh.\n\nQuisque id justo sit amet sapien dignissim vestibulum. Vestibulum ante ipsum primis in faucibus orci luctus et ultrices posuere cubilia Curae; Nulla dapibus dolor vel est. Donec odio justo, sollicitudin ut, suscipit a, feugiat et, eros.","salary":"$183787.55","skills":"Scientific Writing"},
{"id":18,"job_title":"Editor","address":"54 Evergreen Terrace","latitude":-34.6698749,"longitude":-58.5616502,"company":"Aufderhar-Greenfelder","description":"In hac habitasse platea dictumst. Morbi vestibulum, velit id pretium iaculis, diam erat fermentum justo, nec condimentum neque sapien placerat ante. Nulla justo.\n\nAliquam quis turpis eget elit sodales scelerisque. Mauris sit amet eros. Suspendisse accumsan tortor quis turpis.\n\nSed ante. Vivamus tortor. Duis mattis egestas metus.","salary":"$261098.27","skills":"Ppk"},
{"id":19,"job_title":"Physical Therapy Assistant","address":"64960 Becker Point","latitude":43.1405124,"longitude":21.2734409,"company":"Quigley-Marvin","description":"Pellentesque at nulla. Suspendisse potenti. Cras in purus eu magna vulputate luctus.\n\nCum sociis natoque penatibus et magnis dis parturient montes, nascetur ridiculus mus. Vivamus vestibulum sagittis sapien. Cum sociis natoque penatibus et magnis dis parturient montes, nascetur ridiculus mus.\n\nEtiam vel augue. Vestibulum rutrum rutrum neque. Aenean auctor gravida sem.","salary":"$115158.23","skills":"HMI Programming"},
{"id":20,"job_title":"Design Engineer","address":"5170 Dahle Way","latitude":23.021478,"longitude":113.121435,"company":"Adams-Stanton","description":"Integer tincidunt ante vel ipsum. Praesent blandit lacinia erat. Vestibulum sed magna at nunc commodo placerat.\n\nPraesent blandit. Nam nulla. Integer pede justo, lacinia eget, tincidunt eget, tempus vel, pede.\n\nMorbi porttitor lorem id ligula. Suspendisse ornare consequat lectus. In est risus, auctor sed, tristique in, tempus sit amet, sem.","salary":"$143888.48","skills":"Road"},
{"id":21,"job_title":"Electrical Engineer","address":"998 Maple Junction","latitude":-9.9678,"longitude":124.536223,"company":"Kunze-Sauer","description":"Cras mi pede, malesuada in, imperdiet et, commodo vulputate, justo. In blandit ultrices enim. Lorem ipsum dolor sit amet, consectetuer adipiscing elit.\n\nProin interdum mauris non ligula pellentesque ultrices. Phasellus id sapien in sapien iaculis congue. Vivamus metus arcu, adipiscing molestie, hendrerit at, vulputate vitae, nisl.\n\nAenean lectus. Pellentesque eget nunc. Donec quis orci eget orci vehicula condimentum.","salary":"$105915.78","skills":"Payroll"},
{"id":22,"job_title":"Marketing Manager","address":"270 Spenser Center","latitude":-5.7306487,"longitude":-44.7756422,"company":"Hagenes, Lakin and McLaughlin","description":"In congue. Etiam justo. Etiam pretium iaculis justo.\n\nIn hac habitasse platea dictumst. Etiam faucibus cursus urna. Ut tellus.\n\nNulla ut erat id mauris vulputate elementum. Nullam varius. Nulla facilisi.","salary":"$250114.26","skills":"FSMS"},
{"id":23,"job_title":"Nuclear Power Engineer","address":"66 Rowland Park","latitude":9.80278,"longitude":118.69861,"company":"Runte-Abbott","description":"Nullam sit amet turpis elementum ligula vehicula consequat. Morbi a ipsum. Integer a nibh.","salary":"$117590.04","skills":"Brand Development"},
{"id":24,"job_title":"Pharmacist","address":"4 School Crossing","latitude":56.355176,"longitude":26.1725258,"company":"Reichel Inc","description":"Cras non velit nec nisi vulputate nonummy. Maecenas tincidunt lacus at velit. Vivamus vel nulla eget eros elementum pellentesque.\n\nQuisque porta volutpat erat. Quisque erat eros, viverra eget, congue eget, semper rutrum, nulla. Nunc purus.\n\nPhasellus in felis. Donec semper sapien a libero. Nam dui.","salary":"$134746.61","skills":"GST"},
{"id":25,"job_title":"Legal Assistant","address":"9943 1st Place","latitude":22.2304314,"longitude":113.5411611,"company":"Leffler, Mohr and Kris","description":"In congue. Etiam justo. Etiam pretium iaculis justo.\n\nIn hac habitasse platea dictumst. Etiam faucibus cursus urna. Ut tellus.","salary":"$164524.97","skills":"Novell"},
{"id":26,"job_title":"Design Engineer","address":"7 Bowman Way","latitude":-3.2930615,"longitude":114.2747123,"company":"Ankunding Inc","description":"Lorem ipsum dolor sit amet, consectetuer adipiscing elit. Proin risus. Praesent lectus.","salary":"$74932.01","skills":"RMI"},
{"id":27,"job_title":"Legal Assistant","address":"62577 Ohio Point","latitude":8.89508,"longitude":-76.35459,"company":"Feest, Mitchell and DuBuque","description":"Nullam porttitor lacus at turpis. Donec posuere metus vitae ipsum. Aliquam non mauris.","salary":"$32515.71","skills":"Biomedical Engineering"},
{"id":28,"job_title":"Legal Assistant","address":"8 Transport Way","latitude":49.7769817,"longitude":16.9194672,"company":"Durgan-Hahn","description":"Aenean fermentum. Donec ut mauris eget massa tempor convallis. Nulla neque libero, convallis eget, eleifend luctus, ultricies eu, nibh.\n\nQuisque id justo sit amet sapien dignissim vestibulum. Vestibulum ante ipsum primis in faucibus orci luctus et ultrices posuere cubilia Curae; Nulla dapibus dolor vel est. Donec odio justo, sollicitudin ut, suscipit a, feugiat et, eros.","salary":"$281355.02","skills":"PDMS Design"},
{"id":29,"job_title":"Web Designer III","address":"70 Birchwood Terrace","latitude":53.5585675,"longitude":17.7161093,"company":"Dach LLC","description":"Aliquam quis turpis eget elit sodales scelerisque. Mauris sit amet eros. Suspendisse accumsan tortor quis turpis.\n\nSed ante. Vivamus tortor. Duis mattis egestas metus.","salary":"$217013.21","skills":"Smartforms"},
{"id":30,"job_title":"Assistant Professor","address":"8482 Pepper Wood Way","latitude":8.475987,"longitude":47.3657603,"company":"Gulgowski, Bahringer and Schuster","description":"Proin eu mi. Nulla ac enim. In tempor, turpis nec euismod scelerisque, quam turpis adipiscing lorem, vitae mattis nibh ligula nec sem.","salary":"$102086.17","skills":"Emergency Nursing"},
{"id":31,"job_title":"Electrical Engineer","address":"59 Meadow Ridge Alley","latitude":31.617202,"longitude":104.46797,"company":"Hamill and Sons","description":"Aliquam quis turpis eget elit sodales scelerisque. Mauris sit amet eros. Suspendisse accumsan tortor quis turpis.\n\nSed ante. Vivamus tortor. Duis mattis egestas metus.","salary":"$49291.67","skills":"Ownership"},
{"id":32,"job_title":"Chief Design Engineer","address":"214 Kipling Avenue","latitude":41.790245,"longitude":123.374698,"company":"Runte, Harris and Altenwerth","description":"Cras non velit nec nisi vulputate nonummy. Maecenas tincidunt lacus at velit. Vivamus vel nulla eget eros elementum pellentesque.\n\nQuisque porta volutpat erat. Quisque erat eros, viverra eget, congue eget, semper rutrum, nulla. Nunc purus.","salary":"$119148.11","skills":"Easements"},
{"id":33,"job_title":"Executive Secretary","address":"3064 Algoma Lane","latitude":32.16523,"longitude":34.97748,"company":"VonRueden-Kshlerin","description":"Aenean fermentum. Donec ut mauris eget massa tempor convallis. Nulla neque libero, convallis eget, eleifend luctus, ultricies eu, nibh.\n\nQuisque id justo sit amet sapien dignissim vestibulum. Vestibulum ante ipsum primis in faucibus orci luctus et ultrices posuere cubilia Curae; Nulla dapibus dolor vel est. Donec odio justo, sollicitudin ut, suscipit a, feugiat et, eros.\n\nVestibulum ac est lacinia nisi venenatis tristique. Fusce congue, diam id ornare imperdiet, sapien urna pretium nisl, ut volutpat sapien arcu sed augue. Aliquam erat volutpat.","salary":"$48875.93","skills":"High Performance Computing"},
{"id":34,"job_title":"Social Worker","address":"3 Farmco Center","latitude":36.691279,"longitude":101.255892,"company":"Lueilwitz, Collins and Bauch","description":"Etiam vel augue. Vestibulum rutrum rutrum neque. Aenean auctor gravida sem.\n\nPraesent id massa id nisl venenatis lacinia. Aenean sit amet justo. Morbi ut odio.\n\nCras mi pede, malesuada in, imperdiet et, commodo vulputate, justo. In blandit ultrices enim. Lorem ipsum dolor sit amet, consectetuer adipiscing elit.","salary":"$178024.51","skills":"WWII"},
{"id":35,"job_title":"Actuary","address":"9 Oakridge Avenue","latitude":46.6693059,"longitude":5.5466073,"company":"Goodwin, Farrell and Kozey","description":"Cum sociis natoque penatibus et magnis dis parturient montes, nascetur ridiculus mus. Vivamus vestibulum sagittis sapien. Cum sociis natoque penatibus et magnis dis parturient montes, nascetur ridiculus mus.\n\nEtiam vel augue. Vestibulum rutrum rutrum neque. Aenean auctor gravida sem.\n\nPraesent id massa id nisl venenatis lacinia. Aenean sit amet justo. Morbi ut odio.","salary":"$135872.86","skills":"Security Awareness"},
{"id":36,"job_title":"Geological Engineer","address":"931 Bluestem Point","latitude":19.266226,"longitude":109.792761,"company":"Prosacco-Hand","description":"Proin eu mi. Nulla ac enim. In tempor, turpis nec euismod scelerisque, quam turpis adipiscing lorem, vitae mattis nibh ligula nec sem.","salary":"$181903.14","skills":"Social Justice"},
{"id":37,"job_title":"Technical Writer","address":"40034 Utah Parkway","latitude":-28.2587812,"longitude":-52.4160039,"company":"Jacobson, Jacobi and Little","description":"Vestibulum ac est lacinia nisi venenatis tristique. Fusce congue, diam id ornare imperdiet, sapien urna pretium nisl, ut volutpat sapien arcu sed augue. Aliquam erat volutpat.","salary":"$285342.26","skills":"UCP"},
{"id":38,"job_title":"Web Developer II","address":"108 Barnett Place","latitude":30.315892,"longitude":120.218758,"company":"Ankunding, Renner and Hudson","description":"Duis bibendum. Morbi non quam nec dui luctus rutrum. Nulla tellus.\n\nIn sagittis dui vel nisl. Duis ac nibh. Fusce lacus purus, aliquet at, feugiat non, pretium quis, lectus.\n\nSuspendisse potenti. In eleifend quam a odio. In hac habitasse platea dictumst.","salary":"$134700.48","skills":"OS/390"},
{"id":39,"job_title":"Junior Executive","address":"724 Pepper Wood Place","latitude":52.382748,"longitude":1.580316,"company":"Feeney Group","description":"Aenean lectus. Pellentesque eget nunc. Donec quis orci eget orci vehicula condimentum.\n\nCurabitur in libero ut massa volutpat convallis. Morbi odio odio, elementum eu, interdum eu, tincidunt in, leo. Maecenas pulvinar lobortis est.","salary":"$296117.66","skills":"GDS systems"},
{"id":40,"job_title":"Environmental Specialist","address":"09051 Stephen Street","latitude":47.4861398,"longitude":-1.7442022,"company":"Walter Inc","description":"Cras non velit nec nisi vulputate nonummy. Maecenas tincidunt lacus at velit. Vivamus vel nulla eget eros elementum pellentesque.\n\nQuisque porta volutpat erat. Quisque erat eros, viverra eget, congue eget, semper rutrum, nulla. Nunc purus.\n\nPhasellus in felis. Donec semper sapien a libero. Nam dui.","salary":"$171321.88","skills":"BS25999"},
{"id":41,"job_title":"Staff Scientist","address":"0 Sutteridge Way","latitude":12.405227,"longitude":121.990643,"company":"Schmitt LLC","description":"Nullam sit amet turpis elementum ligula vehicula consequat. Morbi a ipsum. Integer a nibh.\n\nIn quis justo. Maecenas rhoncus aliquam lacus. Morbi quis tortor id nulla ultrices aliquet.","salary":"$208947.17","skills":"OATS"},
{"id":42,"job_title":"Nurse Practicioner","address":"5103 Independence Lane","latitude":56.0462575,"longitude":12.730766,"company":"Daniel, Kuhn and Kunde","description":"Phasellus in felis. Donec semper sapien a libero. Nam dui.\n\nProin leo odio, porttitor id, consequat in, consequat ut, nulla. Sed accumsan felis. Ut at dolor quis odio consequat varius.\n\nInteger ac leo. Pellentesque ultrices mattis odio. Donec vitae nisi.","salary":"$174202.19","skills":"Kyocera"},
{"id":43,"job_title":"Programmer I","address":"3 Forest Run Street","latitude":-8.1844859,"longitude":113.6680747,"company":"Bartell-Kovacek","description":"Duis bibendum, felis sed interdum venenatis, turpis enim blandit mi, in porttitor pede justo eu massa. Donec dapibus. Duis at velit eu est congue elementum.\n\nIn hac habitasse platea dictumst. Morbi vestibulum, velit id pretium iaculis, diam erat fermentum justo, nec condimentum neque sapien placerat ante. Nulla justo.\n\nAliquam quis turpis eget elit sodales scelerisque. Mauris sit amet eros. Suspendisse accumsan tortor quis turpis.","salary":"$108482.19","skills":"Flooring"},
{"id":44,"job_title":"Programmer II","address":"48 Bunting Street","latitude":41.3532895,"longitude":-8.2103678,"company":"Schneider Inc","description":"Lorem ipsum dolor sit amet, consectetuer adipiscing elit. Proin risus. Praesent lectus.\n\nVestibulum quam sapien, varius ut, blandit non, interdum in, ante. Vestibulum ante ipsum primis in faucibus orci luctus et ultrices posuere cubilia Curae; Duis faucibus accumsan odio. Curabitur convallis.\n\nDuis consequat dui nec nisi volutpat eleifend. Donec ut dolor. Morbi vel lectus in quam fringilla rhoncus.","salary":"$299347.65","skills":"BPML"},
{"id":45,"job_title":"Administrative Officer","address":"6 Blaine Pass","latitude":-3.0166752,"longitude":16.9181532,"company":"Dare, Fadel and Jast","description":"Cras mi pede, malesuada in, imperdiet et, commodo vulputate, justo. In blandit ultrices enim. Lorem ipsum dolor sit amet, consectetuer adipiscing elit.\n\nProin interdum mauris non ligula pellentesque ultrices. Phasellus id sapien in sapien iaculis congue. Vivamus metus arcu, adipiscing molestie, hendrerit at, vulputate vitae, nisl.","salary":"$183506.33","skills":"NDDS"},
{"id":46,"job_title":"Senior Quality Engineer","address":"6775 Crescent Oaks Court","latitude":59.0463022,"longitude":12.7017317,"company":"Larkin, Barrows and Hane","description":"Duis bibendum. Morbi non quam nec dui luctus rutrum. Nulla tellus.\n\nIn sagittis dui vel nisl. Duis ac nibh. Fusce lacus purus, aliquet at, feugiat non, pretium quis, lectus.\n\nSuspendisse potenti. In eleifend quam a odio. In hac habitasse platea dictumst.","salary":"$60877.06","skills":"NBS Specification"},
{"id":47,"job_title":"Nurse","address":"4 Crescent Oaks Pass","latitude":-6.3414379,"longitude":106.9831434,"company":"Rowe, Barrows and Bailey","description":"In congue. Etiam justo. Etiam pretium iaculis justo.","salary":"$75357.57","skills":"Bank Reconciliation"},
{"id":48,"job_title":"Clinical Specialist","address":"828 Marcy Drive","latitude":10.4816837,"longitude":-66.8603112,"company":"Konopelski-Gleason","description":"Pellentesque at nulla. Suspendisse potenti. Cras in purus eu magna vulputate luctus.","salary":"$104489.55","skills":"JES2"},
{"id":49,"job_title":"Programmer I","address":"5 School Avenue","latitude":31.850989,"longitude":35.183103,"company":"Jaskolski-Buckridge","description":"Cras mi pede, malesuada in, imperdiet et, commodo vulputate, justo. In blandit ultrices enim. Lorem ipsum dolor sit amet, consectetuer adipiscing elit.","salary":"$61505.89","skills":"RPT"},
{"id":50,"job_title":"Dental Hygienist","address":"46762 American Pass","latitude":-8.5693726,"longitude":118.6557911,"company":"Weissnat-Jenkins","description":"Praesent id massa id nisl venenatis lacinia. Aenean sit amet justo. Morbi ut odio.\n\nCras mi pede, malesuada in, imperdiet et, commodo vulputate, justo. In blandit ultrices enim. Lorem ipsum dolor sit amet, consectetuer adipiscing elit.","salary":"$139670.21","skills":"NATO"},
{"id":51,"job_title":"Research Assistant II","address":"030 Bartillon Point","latitude":35.032891,"longitude":108.093259,"company":"Mayert-Hodkiewicz","description":"Vestibulum quam sapien, varius ut, blandit non, interdum in, ante. Vestibulum ante ipsum primis in faucibus orci luctus et ultrices posuere cubilia Curae; Duis faucibus accumsan odio. Curabitur convallis.\n\nDuis consequat dui nec nisi volutpat eleifend. Donec ut dolor. Morbi vel lectus in quam fringilla rhoncus.","salary":"$121131.82","skills":"ICD-10"},
{"id":52,"job_title":"Occupational Therapist","address":"24283 Reindahl Avenue","latitude":39.7191273,"longitude":-8.852352,"company":"McClure Inc","description":"Aenean lectus. Pellentesque eget nunc. Donec quis orci eget orci vehicula condimentum.\n\nCurabitur in libero ut massa volutpat convallis. Morbi odio odio, elementum eu, interdum eu, tincidunt in, leo. Maecenas pulvinar lobortis est.\n\nPhasellus sit amet erat. Nulla tempus. Vivamus in felis eu sapien cursus vestibulum.","salary":"$37049.64","skills":"HSUPA"},
{"id":53,"job_title":"Physical Therapy Assistant","address":"31991 Hollow Ridge Road","latitude":-10.8531643,"longitude":-37.1269791,"company":"Wiza-Jenkins","description":"Fusce consequat. Nulla nisl. Nunc nisl.","salary":"$251702.52","skills":"Business Development"},
{"id":54,"job_title":"Biostatistician II","address":"119 Mcbride Parkway","latitude":53.6094616,"longitude":-6.1832154,"company":"O'Keefe LLC","description":"Proin eu mi. Nulla ac enim. In tempor, turpis nec euismod scelerisque, quam turpis adipiscing lorem, vitae mattis nibh ligula nec sem.\n\nDuis aliquam convallis nunc. Proin at turpis a pede posuere nonummy. Integer non velit.\n\nDonec diam neque, vestibulum eget, vulputate ut, ultrices vel, augue. Vestibulum ante ipsum primis in faucibus orci luctus et ultrices posuere cubilia Curae; Donec pharetra, magna vestibulum aliquet ultrices, erat tortor sollicitudin mi, sit amet lobortis sapien sapien non mi. Integer ac neque.","salary":"$103303.79","skills":"Mentoring"},
{"id":55,"job_title":"Budget/Accounting Analyst IV","address":"94 Ilene Road","latitude":34.4822519,"longitude":66.2724183,"company":"Hagenes LLC","description":"In hac habitasse platea dictumst. Morbi vestibulum, velit id pretium iaculis, diam erat fermentum justo, nec condimentum neque sapien placerat ante. Nulla justo.","salary":"$203974.98","skills":"Metal Fabrication"},
{"id":56,"job_title":"Librarian","address":"1785 Graceland Road","latitude":-3.8553872,"longitude":103.517665,"company":"Ledner, Wunsch and Bradtke","description":"Quisque porta volutpat erat. Quisque erat eros, viverra eget, congue eget, semper rutrum, nulla. Nunc purus.\n\nPhasellus in felis. Donec semper sapien a libero. Nam dui.","salary":"$152594.77","skills":"Autodesk Inventor"},
{"id":57,"job_title":"Senior Cost Accountant","address":"87777 Eagle Crest Park","latitude":31.4727877,"longitude":72.9967658,"company":"Kling-Bins","description":"Nam ultrices, libero non mattis pulvinar, nulla pede ullamcorper augue, a suscipit nulla elit ac nulla. Sed vel enim sit amet nunc viverra dapibus. Nulla suscipit ligula in lacus.\n\nCurabitur at ipsum ac tellus semper interdum. Mauris ullamcorper purus sit amet nulla. Quisque arcu libero, rutrum ac, lobortis vel, dapibus at, diam.","salary":"$80782.72","skills":"IEC 61131-3"},
{"id":58,"job_title":"Analog Circuit Design manager","address":"02 Lighthouse Bay Way","latitude":48.1173081,"longitude":38.1648822,"company":"Nicolas, Bogan and Homenick","description":"Cras non velit nec nisi vulputate nonummy. Maecenas tincidunt lacus at velit. Vivamus vel nulla eget eros elementum pellentesque.\n\nQuisque porta volutpat erat. Quisque erat eros, viverra eget, congue eget, semper rutrum, nulla. Nunc purus.\n\nPhasellus in felis. Donec semper sapien a libero. Nam dui.","salary":"$120379.16","skills":"At-risk"},
{"id":59,"job_title":"Associate Professor","address":"33 Luster Drive","latitude":55.6152783,"longitude":37.9416367,"company":"Ruecker, Boehm and Daugherty","description":"Maecenas ut massa quis augue luctus tincidunt. Nulla mollis molestie lorem. Quisque ut erat.\n\nCurabitur gravida nisi at nibh. In hac habitasse platea dictumst. Aliquam augue quam, sollicitudin vitae, consectetuer eget, rutrum at, lorem.\n\nInteger tincidunt ante vel ipsum. Praesent blandit lacinia erat. Vestibulum sed magna at nunc commodo placerat.","salary":"$278966.86","skills":"Japanese Culture"},
{"id":60,"job_title":"Biostatistician I","address":"37 Johnson Street","latitude":-21.4649238,"longitude":-47.0145295,"company":"Hirthe LLC","description":"Aenean lectus. Pellentesque eget nunc. Donec quis orci eget orci vehicula condimentum.\n\nCurabitur in libero ut massa volutpat convallis. Morbi odio odio, elementum eu, interdum eu, tincidunt in, leo. Maecenas pulvinar lobortis est.","salary":"$54323.13","skills":"IEX Total View"},
{"id":61,"job_title":"Financial Analyst","address":"9 Talmadge Terrace","latitude":5.1227373,"longitude":9.9520961,"company":"Kovacek-Farrell","description":"Cras mi pede, malesuada in, imperdiet et, commodo vulputate, justo. In blandit ultrices enim. Lorem ipsum dolor sit amet, consectetuer adipiscing elit.","salary":"$205257.37","skills":"VxWorks"},
{"id":62,"job_title":"Senior Editor","address":"9558 Burrows Road","latitude":-32.9057716,"longitude":-60.6869017,"company":"Strosin-Heathcote","description":"Integer tincidunt ante vel ipsum. Praesent blandit lacinia erat. Vestibulum sed magna at nunc commodo placerat.\n\nPraesent blandit. Nam nulla. Integer pede justo, lacinia eget, tincidunt eget, tempus vel, pede.","salary":"$280286.23","skills":"Radio Advertising"},
{"id":63,"job_title":"Systems Administrator I","address":"15729 Thackeray Way","latitude":49.8117449,"longitude":6.2541216,"company":"Hilll LLC","description":"Cum sociis natoque penatibus et magnis dis parturient montes, nascetur ridiculus mus. Vivamus vestibulum sagittis sapien. Cum sociis natoque penatibus et magnis dis parturient montes, nascetur ridiculus mus.","salary":"$70817.55","skills":"FEM analysis"},
{"id":64,"job_title":"Financial Analyst","address":"26 Thierer Road","latitude":4.5778968,"longitude":13.3500652,"company":"Brakus Inc","description":"Vestibulum quam sapien, varius ut, blandit non, interdum in, ante. Vestibulum ante ipsum primis in faucibus orci luctus et ultrices posuere cubilia Curae; Duis faucibus accumsan odio. Curabitur convallis.","salary":"$124088.39","skills":"PQQ"},
{"id":65,"job_title":"Marketing Manager","address":"8019 Calypso Trail","latitude":44.0752881,"longitude":39.0848844,"company":"Upton-Rath","description":"Fusce posuere felis sed lacus. Morbi sem mauris, laoreet ut, rhoncus aliquet, pulvinar sed, nisl. Nunc rhoncus dui vel sem.\n\nSed sagittis. Nam congue, risus semper porta volutpat, quam pede lobortis ligula, sit amet eleifend pede libero quis orci. Nullam molestie nibh in lectus.\n\nPellentesque at nulla. Suspendisse potenti. Cras in purus eu magna vulputate luctus.","salary":"$257750.61","skills":"OOH"},
{"id":66,"job_title":"Business Systems Development Analyst","address":"39550 Arizona Trail","latitude":57.767136,"longitude":24.8770839,"company":"Swift, Rowe and Mayer","description":"In congue. Etiam justo. Etiam pretium iaculis justo.\n\nIn hac habitasse platea dictumst. Etiam faucibus cursus urna. Ut tellus.","salary":"$118367.25","skills":"AX 2009"},
{"id":67,"job_title":"Biostatistician I","address":"71 Lukken Road","latitude":11.462476,"longitude":122.7807,"company":"Brekke Group","description":"Integer tincidunt ante vel ipsum. Praesent blandit lacinia erat. Vestibulum sed magna at nunc commodo placerat.\n\nPraesent blandit. Nam nulla. Integer pede justo, lacinia eget, tincidunt eget, tempus vel, pede.","salary":"$146714.09","skills":"Static Timing Analysis"},
{"id":68,"job_title":"Administrative Officer","address":"13665 Pierstorff Pass","latitude":39.983599,"longitude":98.90327,"company":"Sipes LLC","description":"In congue. Etiam justo. Etiam pretium iaculis justo.\n\nIn hac habitasse platea dictumst. Etiam faucibus cursus urna. Ut tellus.\n\nNulla ut erat id mauris vulputate elementum. Nullam varius. Nulla facilisi.","salary":"$175026.00","skills":"BPMN"},
{"id":69,"job_title":"Senior Financial Analyst","address":"28868 Westend Drive","latitude":21.241735,"longitude":-77.8267218,"company":"Kunze, Roob and Stracke","description":"In hac habitasse platea dictumst. Etiam faucibus cursus urna. Ut tellus.\n\nNulla ut erat id mauris vulputate elementum. Nullam varius. Nulla facilisi.\n\nCras non velit nec nisi vulputate nonummy. Maecenas tincidunt lacus at velit. Vivamus vel nulla eget eros elementum pellentesque.","salary":"$238859.17","skills":"BPD"},
{"id":70,"job_title":"Tax Accountant","address":"352 Pine View Point","latitude":51.4753297,"longitude":46.1136773,"company":"Keeling, Lemke and Lueilwitz","description":"In congue. Etiam justo. Etiam pretium iaculis justo.\n\nIn hac habitasse platea dictumst. Etiam faucibus cursus urna. Ut tellus.","salary":"$116145.28","skills":"CDPE Designation"},
{"id":71,"job_title":"Programmer Analyst IV","address":"9 Brickson Park Junction","latitude":39.876176,"longitude":117.355421,"company":"Effertz Group","description":"In hac habitasse platea dictumst. Morbi vestibulum, velit id pretium iaculis, diam erat fermentum justo, nec condimentum neque sapien placerat ante. Nulla justo.","salary":"$208325.19","skills":"TLM"},
{"id":72,"job_title":"Senior Developer","address":"0 Hudson Center","latitude":63.24708,"longitude":29.9427343,"company":"Parker LLC","description":"In hac habitasse platea dictumst. Etiam faucibus cursus urna. Ut tellus.\n\nNulla ut erat id mauris vulputate elementum. Nullam varius. Nulla facilisi.","salary":"$155401.09","skills":"Sensory Evaluation"},
{"id":73,"job_title":"Senior Sales Associate","address":"0961 Hanover Lane","latitude":-8.6283422,"longitude":115.2580854,"company":"Fahey Group","description":"Proin interdum mauris non ligula pellentesque ultrices. Phasellus id sapien in sapien iaculis congue. Vivamus metus arcu, adipiscing molestie, hendrerit at, vulputate vitae, nisl.\n\nAenean lectus. Pellentesque eget nunc. Donec quis orci eget orci vehicula condimentum.\n\nCurabitur in libero ut massa volutpat convallis. Morbi odio odio, elementum eu, interdum eu, tincidunt in, leo. Maecenas pulvinar lobortis est.","salary":"$155903.94","skills":"Online Journalism"},
{"id":74,"job_title":"Librarian","address":"854 Gateway Pass","latitude":23.9052203,"longitude":42.9124955,"company":"Metz, Towne and Metz","description":"Quisque id justo sit amet sapien dignissim vestibulum. Vestibulum ante ipsum primis in faucibus orci luctus et ultrices posuere cubilia Curae; Nulla dapibus dolor vel est. Donec odio justo, sollicitudin ut, suscipit a, feugiat et, eros.\n\nVestibulum ac est lacinia nisi venenatis tristique. Fusce congue, diam id ornare imperdiet, sapien urna pretium nisl, ut volutpat sapien arcu sed augue. Aliquam erat volutpat.\n\nIn congue. Etiam justo. Etiam pretium iaculis justo.","salary":"$41893.76","skills":"Manufacturing Operations Management"},
{"id":75,"job_title":"Accountant II","address":"7 Melody Junction","latitude":45.477613,"longitude":124.47553,"company":"Altenwerth-Goyette","description":"Maecenas leo odio, condimentum id, luctus nec, molestie sed, justo. Pellentesque viverra pede ac diam. Cras pellentesque volutpat dui.","salary":"$279433.42","skills":"BCNE"},
{"id":76,"job_title":"Payment Adjustment Coordinator","address":"01 Lindbergh Circle","latitude":-7.1387719,"longitude":111.639243,"company":"Schulist and Sons","description":"Pellentesque at nulla. Suspendisse potenti. Cras in purus eu magna vulputate luctus.\n\nCum sociis natoque penatibus et magnis dis parturient montes, nascetur ridiculus mus. Vivamus vestibulum sagittis sapien. Cum sociis natoque penatibus et magnis dis parturient montes, nascetur ridiculus mus.\n\nEtiam vel augue. Vestibulum rutrum rutrum neque. Aenean auctor gravida sem.","salary":"$67976.38","skills":"Electronics"},
{"id":77,"job_title":"Quality Engineer","address":"6 Petterle Avenue","latitude":34.909793,"longitude":108.980102,"company":"Boyle-Weber","description":"Sed sagittis. Nam congue, risus semper porta volutpat, quam pede lobortis ligula, sit amet eleifend pede libero quis orci. Nullam molestie nibh in lectus.\n\nPellentesque at nulla. Suspendisse potenti. Cras in purus eu magna vulputate luctus.\n\nCum sociis natoque penatibus et magnis dis parturient montes, nascetur ridiculus mus. Vivamus vestibulum sagittis sapien. Cum sociis natoque penatibus et magnis dis parturient montes, nascetur ridiculus mus.","salary":"$161184.30","skills":"HSQE"},
{"id":78,"job_title":"Help Desk Technician","address":"8469 Susan Alley","latitude":31.533333,"longitude":-4.466667,"company":"Bahringer, Homenick and Little","description":"Nulla ut erat id mauris vulputate elementum. Nullam varius. Nulla facilisi.\n\nCras non velit nec nisi vulputate nonummy. Maecenas tincidunt lacus at velit. Vivamus vel nulla eget eros elementum pellentesque.","salary":"$276476.06","skills":"EOQ"},
{"id":79,"job_title":"Sales Representative","address":"472 Longview Court","latitude":-7.1477523,"longitude":109.9854145,"company":"Jenkins-Pollich","description":"Quisque porta volutpat erat. Quisque erat eros, viverra eget, congue eget, semper rutrum, nulla. Nunc purus.","salary":"$128173.04","skills":"Slickline"},
{"id":80,"job_title":"Business Systems Development Analyst","address":"64 Main Circle","latitude":39.912288,"longitude":116.365867,"company":"Kohler LLC","description":"Donec diam neque, vestibulum eget, vulputate ut, ultrices vel, augue. Vestibulum ante ipsum primis in faucibus orci luctus et ultrices posuere cubilia Curae; Donec pharetra, magna vestibulum aliquet ultrices, erat tortor sollicitudin mi, sit amet lobortis sapien sapien non mi. Integer ac neque.","salary":"$57695.51","skills":"Order Fulfillment"},
{"id":81,"job_title":"Speech Pathologist","address":"56 Thierer Hill","latitude":-6.8330992,"longitude":106.3198908,"company":"King-Reinger","description":"Donec diam neque, vestibulum eget, vulputate ut, ultrices vel, augue. Vestibulum ante ipsum primis in faucibus orci luctus et ultrices posuere cubilia Curae; Donec pharetra, magna vestibulum aliquet ultrices, erat tortor sollicitudin mi, sit amet lobortis sapien sapien non mi. Integer ac neque.","salary":"$107001.20","skills":"American Welding Society (AWS)"},
{"id":82,"job_title":"Financial Advisor","address":"85195 Luster Street","latitude":-10.5822,"longitude":121.8062,"company":"McDermott LLC","description":"Praesent id massa id nisl venenatis lacinia. Aenean sit amet justo. Morbi ut odio.\n\nCras mi pede, malesuada in, imperdiet et, commodo vulputate, justo. In blandit ultrices enim. Lorem ipsum dolor sit amet, consectetuer adipiscing elit.","salary":"$92090.81","skills":"SCADA"},
{"id":83,"job_title":"Compensation Analyst","address":"7588 Shoshone Junction","latitude":49.874775,"longitude":19.628749,"company":"Schamberger and Sons","description":"Nullam sit amet turpis elementum ligula vehicula consequat. Morbi a ipsum. Integer a nibh.\n\nIn quis justo. Maecenas rhoncus aliquam lacus. Morbi quis tortor id nulla ultrices aliquet.","salary":"$283874.62","skills":"Object Oriented Perl"},
{"id":84,"job_title":"Professor","address":"7 Redwing Road","latitude":51.4918437,"longitude":7.5319762,"company":"Bashirian-Medhurst","description":"Etiam vel augue. Vestibulum rutrum rutrum neque. Aenean auctor gravida sem.\n\nPraesent id massa id nisl venenatis lacinia. Aenean sit amet justo. Morbi ut odio.\n\nCras mi pede, malesuada in, imperdiet et, commodo vulputate, justo. In blandit ultrices enim. Lorem ipsum dolor sit amet, consectetuer adipiscing elit.","salary":"$71355.76","skills":"Alternative Medicine"},
{"id":85,"job_title":"Data Coordiator","address":"9 Dorton Drive","latitude":50.3382214,"longitude":83.5062548,"company":"Ondricka-Lynch","description":"Phasellus in felis. Donec semper sapien a libero. Nam dui.\n\nProin leo odio, porttitor id, consequat in, consequat ut, nulla. Sed accumsan felis. Ut at dolor quis odio consequat varius.\n\nInteger ac leo. Pellentesque ultrices mattis odio. Donec vitae nisi.","salary":"$118316.66","skills":"CMTS"},
{"id":86,"job_title":"Administrative Assistant I","address":"799 Lunder Road","latitude":28.445307,"longitude":113.521804,"company":"Moore-Goyette","description":"Morbi non lectus. Aliquam sit amet diam in magna bibendum imperdiet. Nullam orci pede, venenatis non, sodales sed, tincidunt eu, felis.","salary":"$157988.28","skills":"DLC"},
{"id":87,"job_title":"Professor","address":"7766 Longview Drive","latitude":53.00942,"longitude":17.73989,"company":"Towne, Altenwerth and Rowe","description":"Cras mi pede, malesuada in, imperdiet et, commodo vulputate, justo. In blandit ultrices enim. Lorem ipsum dolor sit amet, consectetuer adipiscing elit.\n\nProin interdum mauris non ligula pellentesque ultrices. Phasellus id sapien in sapien iaculis congue. Vivamus metus arcu, adipiscing molestie, hendrerit at, vulputate vitae, nisl.","salary":"$113190.88","skills":"Hotels"},
{"id":88,"job_title":"Environmental Specialist","address":"29640 Grasskamp Place","latitude":54.251638,"longitude":23.1797382,"company":"Renner, Mayer and Lebsack","description":"Cum sociis natoque penatibus et magnis dis parturient montes, nascetur ridiculus mus. Vivamus vestibulum sagittis sapien. Cum sociis natoque penatibus et magnis dis parturient montes, nascetur ridiculus mus.","salary":"$145285.99","skills":"Weapons of Mass Destruction"},
{"id":89,"job_title":"Senior Financial Analyst","address":"477 Darwin Point","latitude":-33.2604441,"longitude":-58.0185646,"company":"Stanton Group","description":"Morbi non lectus. Aliquam sit amet diam in magna bibendum imperdiet. Nullam orci pede, venenatis non, sodales sed, tincidunt eu, felis.\n\nFusce posuere felis sed lacus. Morbi sem mauris, laoreet ut, rhoncus aliquet, pulvinar sed, nisl. Nunc rhoncus dui vel sem.\n\nSed sagittis. Nam congue, risus semper porta volutpat, quam pede lobortis ligula, sit amet eleifend pede libero quis orci. Nullam molestie nibh in lectus.","salary":"$237674.12","skills":"VMware VTSP"},
{"id":90,"job_title":"Executive Secretary","address":"06627 3rd Way","latitude":15.491919,"longitude":99.8348146,"company":"Daniel-Huel","description":"Praesent blandit. Nam nulla. Integer pede justo, lacinia eget, tincidunt eget, tempus vel, pede.","salary":"$30508.62","skills":"Strategic Thinking"},
{"id":91,"job_title":"Nurse","address":"76 Stoughton Center","latitude":52.1584604,"longitude":20.9110916,"company":"Volkman Inc","description":"Morbi non lectus. Aliquam sit amet diam in magna bibendum imperdiet. Nullam orci pede, venenatis non, sodales sed, tincidunt eu, felis.","salary":"$263623.38","skills":"WSRR"},
{"id":92,"job_title":"Accountant II","address":"4 David Alley","latitude":35.287727,"longitude":111.692186,"company":"Rice-Ortiz","description":"Integer tincidunt ante vel ipsum. Praesent blandit lacinia erat. Vestibulum sed magna at nunc commodo placerat.","salary":"$265681.60","skills":"Fly Tying"},
{"id":93,"job_title":"Accountant IV","address":"73567 Lien Pass","latitude":-6.6858425,"longitude":-36.6602483,"company":"Heaney, Huels and Murphy","description":"Morbi non lectus. Aliquam sit amet diam in magna bibendum imperdiet. Nullam orci pede, venenatis non, sodales sed, tincidunt eu, felis.\n\nFusce posuere felis sed lacus. Morbi sem mauris, laoreet ut, rhoncus aliquet, pulvinar sed, nisl. Nunc rhoncus dui vel sem.\n\nSed sagittis. Nam congue, risus semper porta volutpat, quam pede lobortis ligula, sit amet eleifend pede libero quis orci. Nullam molestie nibh in lectus.","salary":"$276983.44","skills":"Dual Diagnosis"},
{"id":94,"job_title":"VP Accounting","address":"135 Lake View Court","latitude":-6.8575149,"longitude":107.6422488,"company":"Toy Group","description":"Morbi porttitor lorem id ligula. Suspendisse ornare consequat lectus. In est risus, auctor sed, tristique in, tempus sit amet, sem.\n\nFusce consequat. Nulla nisl. Nunc nisl.\n\nDuis bibendum, felis sed interdum venenatis, turpis enim blandit mi, in porttitor pede justo eu massa. Donec dapibus. Duis at velit eu est congue elementum.","salary":"$251517.46","skills":"Yield Management"},
{"id":95,"job_title":"GIS Technical Architect","address":"3 John Wall Junction","latitude":52.0990723,"longitude":18.6045805,"company":"Langworth, Leuschke and Pfeffer","description":"Cras non velit nec nisi vulputate nonummy. Maecenas tincidunt lacus at velit. Vivamus vel nulla eget eros elementum pellentesque.\n\nQuisque porta volutpat erat. Quisque erat eros, viverra eget, congue eget, semper rutrum, nulla. Nunc purus.\n\nPhasellus in felis. Donec semper sapien a libero. Nam dui.","salary":"$219226.27","skills":"UHF"},
{"id":96,"job_title":"Help Desk Technician","address":"51873 Surrey Trail","latitude":18.8478608,"longitude":-99.1843676,"company":"Walter, Kovacek and Klocko","description":"In hac habitasse platea dictumst. Etiam faucibus cursus urna. Ut tellus.\n\nNulla ut erat id mauris vulputate elementum. Nullam varius. Nulla facilisi.\n\nCras non velit nec nisi vulputate nonummy. Maecenas tincidunt lacus at velit. Vivamus vel nulla eget eros elementum pellentesque.","salary":"$227727.37","skills":"BPEL"},
{"id":97,"job_title":"Professor","address":"1 Milwaukee Drive","latitude":-8.504043,"longitude":117.428497,"company":"Herman, Dibbert and Hansen","description":"Quisque porta volutpat erat. Quisque erat eros, viverra eget, congue eget, semper rutrum, nulla. Nunc purus.\n\nPhasellus in felis. Donec semper sapien a libero. Nam dui.\n\nProin leo odio, porttitor id, consequat in, consequat ut, nulla. Sed accumsan felis. Ut at dolor quis odio consequat varius.","salary":"$226951.08","skills":"OWL"},
{"id":98,"job_title":"Editor","address":"01 Summit Terrace","latitude":43.6865336,"longitude":43.5192652,"company":"Lang Group","description":"Phasellus sit amet erat. Nulla tempus. Vivamus in felis eu sapien cursus vestibulum.\n\nProin eu mi. Nulla ac enim. In tempor, turpis nec euismod scelerisque, quam turpis adipiscing lorem, vitae mattis nibh ligula nec sem.","salary":"$40576.24","skills":"Comic Book Illustration"},
{"id":99,"job_title":"Statistician I","address":"6 Del Mar Terrace","latitude":0.7988772,"longitude":127.3847266,"company":"Langworth, Hilpert and Kunde","description":"Phasellus in felis. Donec semper sapien a libero. Nam dui.","salary":"$248945.47","skills":"IBM iSeries"},
{"id":100,"job_title":"Programmer Analyst IV","address":"9521 Vermont Park","latitude":24.762172,"longitude":-104.927894,"company":"Bechtelar, Wiegand and Sauer","description":"Praesent blandit. Nam nulla. Integer pede justo, lacinia eget, tincidunt eget, tempus vel, pede.\n\nMorbi porttitor lorem id ligula. Suspendisse ornare consequat lectus. In est risus, auctor sed, tristique in, tempus sit amet, sem.\n\nFusce consequat. Nulla nisl. Nunc nisl.","salary":"$242467.56","skills":"FPC 1"},
{"id":101,"job_title":"Senior Cost Accountant","address":"43 Carberry Hill","latitude":21.5471976,"longitude":-99.6878432,"company":"Purdy, Towne and Monahan","description":"Quisque porta volutpat erat. Quisque erat eros, viverra eget, congue eget, semper rutrum, nulla. Nunc purus.","salary":"$96380.58","skills":"Xinet"},
{"id":102,"job_title":"Mechanical Systems Engineer","address":"87561 Hoard Pass","latitude":62.3316244,"longitude":27.7461577,"company":"Marks-Christiansen","description":"Aenean fermentum. Donec ut mauris eget massa tempor convallis. Nulla neque libero, convallis eget, eleifend luctus, ultricies eu, nibh.\n\nQuisque id justo sit amet sapien dignissim vestibulum. Vestibulum ante ipsum primis in faucibus orci luctus et ultrices posuere cubilia Curae; Nulla dapibus dolor vel est. Donec odio justo, sollicitudin ut, suscipit a, feugiat et, eros.\n\nVestibulum ac est lacinia nisi venenatis tristique. Fusce congue, diam id ornare imperdiet, sapien urna pretium nisl, ut volutpat sapien arcu sed augue. Aliquam erat volutpat.","salary":"$177929.15","skills":"Oxides"},
{"id":103,"job_title":"Internal Auditor","address":"20 Elka Crossing","latitude":57.7581391,"longitude":24.3543455,"company":"Schiller-Durgan","description":"Lorem ipsum dolor sit amet, consectetuer adipiscing elit. Proin risus. Praesent lectus.\n\nVestibulum quam sapien, varius ut, blandit non, interdum in, ante. Vestibulum ante ipsum primis in faucibus orci luctus et ultrices posuere cubilia Curae; Duis faucibus accumsan odio. Curabitur convallis.\n\nDuis consequat dui nec nisi volutpat eleifend. Donec ut dolor. Morbi vel lectus in quam fringilla rhoncus.","salary":"$151038.72","skills":"Class III Medical Devices"},
{"id":104,"job_title":"Quality Engineer","address":"637 Hazelcrest Park","latitude":14.8857071,"longitude":-90.9087455,"company":"Jacobi-Harris","description":"Phasellus sit amet erat. Nulla tempus. Vivamus in felis eu sapien cursus vestibulum.\n\nProin eu mi. Nulla ac enim. In tempor, turpis nec euismod scelerisque, quam turpis adipiscing lorem, vitae mattis nibh ligula nec sem.","salary":"$93721.22","skills":"Product Marketing"},
{"id":105,"job_title":"Software Consultant","address":"5 Troy Pass","latitude":41.3360854,"longitude":47.1318069,"company":"Abshire, Schulist and Nicolas","description":"Cum sociis natoque penatibus et magnis dis parturient montes, nascetur ridiculus mus. Vivamus vestibulum sagittis sapien. Cum sociis natoque penatibus et magnis dis parturient montes, nascetur ridiculus mus.\n\nEtiam vel augue. Vestibulum rutrum rutrum neque. Aenean auctor gravida sem.\n\nPraesent id massa id nisl venenatis lacinia. Aenean sit amet justo. Morbi ut odio.","salary":"$91343.45","skills":"GFAAS"},
{"id":106,"job_title":"Automation Specialist I","address":"6 Springs Avenue","latitude":51.5534631,"longitude":39.0929181,"company":"Steuber, Murazik and Lindgren","description":"Morbi non lectus. Aliquam sit amet diam in magna bibendum imperdiet. Nullam orci pede, venenatis non, sodales sed, tincidunt eu, felis.\n\nFusce posuere felis sed lacus. Morbi sem mauris, laoreet ut, rhoncus aliquet, pulvinar sed, nisl. Nunc rhoncus dui vel sem.","salary":"$102483.67","skills":"TMS320"},
{"id":107,"job_title":"Payment Adjustment Coordinator","address":"7643 Kinsman Park","latitude":39.3688081,"longitude":-9.3284939,"company":"Pagac-Bartell","description":"Donec diam neque, vestibulum eget, vulputate ut, ultrices vel, augue. Vestibulum ante ipsum primis in faucibus orci luctus et ultrices posuere cubilia Curae; Donec pharetra, magna vestibulum aliquet ultrices, erat tortor sollicitudin mi, sit amet lobortis sapien sapien non mi. Integer ac neque.\n\nDuis bibendum. Morbi non quam nec dui luctus rutrum. Nulla tellus.","salary":"$272631.43","skills":"CNC Programming"},
{"id":108,"job_title":"Analog Circuit Design manager","address":"9941 Charing Cross Circle","latitude":16.15523,"longitude":43.42102,"company":"Hermann, Conroy and Goldner","description":"Sed ante. Vivamus tortor. Duis mattis egestas metus.\n\nAenean fermentum. Donec ut mauris eget massa tempor convallis. Nulla neque libero, convallis eget, eleifend luctus, ultricies eu, nibh.","salary":"$112939.66","skills":"Animal Work"},
{"id":109,"job_title":"Automation Specialist II","address":"087 Northport Street","latitude":63.9060413,"longitude":24.5144506,"company":"Ondricka and Sons","description":"Phasellus sit amet erat. Nulla tempus. Vivamus in felis eu sapien cursus vestibulum.\n\nProin eu mi. Nulla ac enim. In tempor, turpis nec euismod scelerisque, quam turpis adipiscing lorem, vitae mattis nibh ligula nec sem.","salary":"$153602.56","skills":"NRA"},
{"id":110,"job_title":"Programmer III","address":"1496 Elmside Alley","latitude":-2.0242564,"longitude":115.5444231,"company":"Considine-Kshlerin","description":"In hac habitasse platea dictumst. Etiam faucibus cursus urna. Ut tellus.\n\nNulla ut erat id mauris vulputate elementum. Nullam varius. Nulla facilisi.\n\nCras non velit nec nisi vulputate nonummy. Maecenas tincidunt lacus at velit. Vivamus vel nulla eget eros elementum pellentesque.","salary":"$205141.06","skills":"Klout"},
{"id":111,"job_title":"Assistant Media Planner","address":"62736 Northridge Center","latitude":13.9300945,"longitude":120.9522977,"company":"Sanford, White and King","description":"Lorem ipsum dolor sit amet, consectetuer adipiscing elit. Proin risus. Praesent lectus.\n\nVestibulum quam sapien, varius ut, blandit non, interdum in, ante. Vestibulum ante ipsum primis in faucibus orci luctus et ultrices posuere cubilia Curae; Duis faucibus accumsan odio. Curabitur convallis.","salary":"$232594.53","skills":"HUMINT"},
{"id":112,"job_title":"Structural Engineer","address":"45074 Sherman Circle","latitude":-8.7318869,"longitude":121.7423434,"company":"Lind-Walter","description":"Praesent id massa id nisl venenatis lacinia. Aenean sit amet justo. Morbi ut odio.\n\nCras mi pede, malesuada in, imperdiet et, commodo vulputate, justo. In blandit ultrices enim. Lorem ipsum dolor sit amet, consectetuer adipiscing elit.\n\nProin interdum mauris non ligula pellentesque ultrices. Phasellus id sapien in sapien iaculis congue. Vivamus metus arcu, adipiscing molestie, hendrerit at, vulputate vitae, nisl.","salary":"$282792.62","skills":"Vascular"},
{"id":113,"job_title":"Account Coordinator","address":"837 Scoville Lane","latitude":-7.042646,"longitude":110.894036,"company":"Satterfield-Powlowski","description":"Proin interdum mauris non ligula pellentesque ultrices. Phasellus id sapien in sapien iaculis congue. Vivamus metus arcu, adipiscing molestie, hendrerit at, vulputate vitae, nisl.\n\nAenean lectus. Pellentesque eget nunc. Donec quis orci eget orci vehicula condimentum.\n\nCurabitur in libero ut massa volutpat convallis. Morbi odio odio, elementum eu, interdum eu, tincidunt in, leo. Maecenas pulvinar lobortis est.","salary":"$260155.90","skills":"Xbox"},
{"id":114,"job_title":"VP Sales","address":"0 Muir Hill","latitude":30.3312397,"longitude":120.1534039,"company":"Bechtelar-Reichert","description":"In sagittis dui vel nisl. Duis ac nibh. Fusce lacus purus, aliquet at, feugiat non, pretium quis, lectus.\n\nSuspendisse potenti. In eleifend quam a odio. In hac habitasse platea dictumst.\n\nMaecenas ut massa quis augue luctus tincidunt. Nulla mollis molestie lorem. Quisque ut erat.","salary":"$182073.05","skills":"Vi"},
{"id":115,"job_title":"Electrical Engineer","address":"8320 Eagan Circle","latitude":15.1330481,"longitude":103.1971067,"company":"Jerde, Orn and Koepp","description":"In hac habitasse platea dictumst. Etiam faucibus cursus urna. Ut tellus.\n\nNulla ut erat id mauris vulputate elementum. Nullam varius. Nulla facilisi.\n\nCras non velit nec nisi vulputate nonummy. Maecenas tincidunt lacus at velit. Vivamus vel nulla eget eros elementum pellentesque.","salary":"$136838.76","skills":"DMT"},
{"id":116,"job_title":"Compensation Analyst","address":"5 Algoma Center","latitude":41.4514619,"longitude":-8.4873087,"company":"Sporer-Turcotte","description":"Quisque id justo sit amet sapien dignissim vestibulum. Vestibulum ante ipsum primis in faucibus orci luctus et ultrices posuere cubilia Curae; Nulla dapibus dolor vel est. Donec odio justo, sollicitudin ut, suscipit a, feugiat et, eros.\n\nVestibulum ac est lacinia nisi venenatis tristique. Fusce congue, diam id ornare imperdiet, sapien urna pretium nisl, ut volutpat sapien arcu sed augue. Aliquam erat volutpat.","salary":"$260055.01","skills":"MFG-Pro"},
{"id":117,"job_title":"Professor","address":"4294 Warbler Point","latitude":38.2527464,"longitude":125.0911142,"company":"Zulauf-Rippin","description":"Proin leo odio, porttitor id, consequat in, consequat ut, nulla. Sed accumsan felis. Ut at dolor quis odio consequat varius.\n\nInteger ac leo. Pellentesque ultrices mattis odio. Donec vitae nisi.\n\nNam ultrices, libero non mattis pulvinar, nulla pede ullamcorper augue, a suscipit nulla elit ac nulla. Sed vel enim sit amet nunc viverra dapibus. Nulla suscipit ligula in lacus.","salary":"$59719.17","skills":"Web Content"},
{"id":118,"job_title":"Administrative Officer","address":"388 Bobwhite Parkway","latitude":49.3648502,"longitude":16.6477552,"company":"Schiller-Roob","description":"Phasellus sit amet erat. Nulla tempus. Vivamus in felis eu sapien cursus vestibulum.","salary":"$63524.41","skills":"Hazard Recognition"},
{"id":119,"job_title":"Pharmacist","address":"20630 Moulton Place","latitude":36.6085381,"longitude":44.5238693,"company":"Treutel-Becker","description":"Fusce posuere felis sed lacus. Morbi sem mauris, laoreet ut, rhoncus aliquet, pulvinar sed, nisl. Nunc rhoncus dui vel sem.\n\nSed sagittis. Nam congue, risus semper porta volutpat, quam pede lobortis ligula, sit amet eleifend pede libero quis orci. Nullam molestie nibh in lectus.","salary":"$45054.62","skills":"TSM"},
{"id":120,"job_title":"Help Desk Operator","address":"98 Sunbrook Pass","latitude":30.630173,"longitude":120.565098,"company":"Okuneva-Bartoletti","description":"Vestibulum ac est lacinia nisi venenatis tristique. Fusce congue, diam id ornare imperdiet, sapien urna pretium nisl, ut volutpat sapien arcu sed augue. Aliquam erat volutpat.","salary":"$122943.34","skills":"Hazard Identification"},
{"id":121,"job_title":"Compensation Analyst","address":"441 Lukken Place","latitude":50.1341084,"longitude":17.5359489,"company":"Harris, Denesik and Jerde","description":"Proin leo odio, porttitor id, consequat in, consequat ut, nulla. Sed accumsan felis. Ut at dolor quis odio consequat varius.\n\nInteger ac leo. Pellentesque ultrices mattis odio. Donec vitae nisi.","salary":"$46396.23","skills":"Zynx"},
{"id":122,"job_title":"Recruiting Manager","address":"286 Independence Place","latitude":32.86268,"longitude":110.40864,"company":"Bode, Prohaska and Paucek","description":"Duis consequat dui nec nisi volutpat eleifend. Donec ut dolor. Morbi vel lectus in quam fringilla rhoncus.","salary":"$155989.33","skills":"Supply Chain Optimization"},
{"id":123,"job_title":"Senior Financial Analyst","address":"04 Eagan Lane","latitude":59.9047305,"longitude":10.7670564,"company":"Baumbach, Kemmer and Rogahn","description":"In sagittis dui vel nisl. Duis ac nibh. Fusce lacus purus, aliquet at, feugiat non, pretium quis, lectus.","salary":"$147058.18","skills":"IBS"},
{"id":124,"job_title":"Food Chemist","address":"20 Sherman Center","latitude":0.2198155,"longitude":34.4918988,"company":"Homenick, Leannon and Mosciski","description":"Quisque porta volutpat erat. Quisque erat eros, viverra eget, congue eget, semper rutrum, nulla. Nunc purus.","salary":"$174140.61","skills":"Unit Testing"},
{"id":125,"job_title":"Legal Assistant","address":"8 Schurz Road","latitude":38.2238615,"longitude":23.9232894,"company":"Brakus, Thompson and Haley","description":"Maecenas tristique, est et tempus semper, est quam pharetra magna, ac consequat metus sapien ut nunc. Vestibulum ante ipsum primis in faucibus orci luctus et ultrices posuere cubilia Curae; Mauris viverra diam vitae quam. Suspendisse potenti.\n\nNullam porttitor lacus at turpis. Donec posuere metus vitae ipsum. Aliquam non mauris.","salary":"$56733.08","skills":"Zeta Potential"},
{"id":126,"job_title":"Budget/Accounting Analyst III","address":"30853 Gale Court","latitude":4.15663,"longitude":-76.287762,"company":"Swaniawski LLC","description":"In hac habitasse platea dictumst. Morbi vestibulum, velit id pretium iaculis, diam erat fermentum justo, nec condimentum neque sapien placerat ante. Nulla justo.\n\nAliquam quis turpis eget elit sodales scelerisque. Mauris sit amet eros. Suspendisse accumsan tortor quis turpis.\n\nSed ante. Vivamus tortor. Duis mattis egestas metus.","salary":"$133816.04","skills":"Governance"},
{"id":127,"job_title":"Tax Accountant","address":"43134 Merchant Court","latitude":25.415248,"longitude":49.679652,"company":"Vandervort, Boyle and Kuhic","description":"Sed sagittis. Nam congue, risus semper porta volutpat, quam pede lobortis ligula, sit amet eleifend pede libero quis orci. Nullam molestie nibh in lectus.\n\nPellentesque at nulla. Suspendisse potenti. Cras in purus eu magna vulputate luctus.\n\nCum sociis natoque penatibus et magnis dis parturient montes, nascetur ridiculus mus. Vivamus vestibulum sagittis sapien. Cum sociis natoque penatibus et magnis dis parturient montes, nascetur ridiculus mus.","salary":"$100554.60","skills":"OOS"},
{"id":128,"job_title":"Nurse Practicioner","address":"66 1st Plaza","latitude":-4.4606478,"longitude":-65.6658568,"company":"Kovacek-Mitchell","description":"In sagittis dui vel nisl. Duis ac nibh. Fusce lacus purus, aliquet at, feugiat non, pretium quis, lectus.\n\nSuspendisse potenti. In eleifend quam a odio. In hac habitasse platea dictumst.","salary":"$226565.35","skills":"Branding"},
{"id":129,"job_title":"Developer IV","address":"42 Roxbury Trail","latitude":49.689425,"longitude":21.9126813,"company":"Carroll-Hackett","description":"Morbi non lectus. Aliquam sit amet diam in magna bibendum imperdiet. Nullam orci pede, venenatis non, sodales sed, tincidunt eu, felis.\n\nFusce posuere felis sed lacus. Morbi sem mauris, laoreet ut, rhoncus aliquet, pulvinar sed, nisl. Nunc rhoncus dui vel sem.","salary":"$237365.33","skills":"XMetal"},
{"id":130,"job_title":"Safety Technician I","address":"792 Glacier Hill Lane","latitude":37.035213,"longitude":120.764679,"company":"Hodkiewicz, Hudson and Lowe","description":"In hac habitasse platea dictumst. Etiam faucibus cursus urna. Ut tellus.","salary":"$111215.43","skills":"Hazardous Waste Management"},
{"id":131,"job_title":"Database Administrator IV","address":"81 Sutteridge Drive","latitude":-8.7581,"longitude":120.7293,"company":"Cruickshank and Sons","description":"Cum sociis natoque penatibus et magnis dis parturient montes, nascetur ridiculus mus. Vivamus vestibulum sagittis sapien. Cum sociis natoque penatibus et magnis dis parturient montes, nascetur ridiculus mus.","salary":"$76473.43","skills":"EEPROM"},
{"id":132,"job_title":"Human Resources Assistant I","address":"47717 Judy Center","latitude":48.8951749,"longitude":2.0743633,"company":"Runolfsdottir and Sons","description":"Praesent blandit. Nam nulla. Integer pede justo, lacinia eget, tincidunt eget, tempus vel, pede.\n\nMorbi porttitor lorem id ligula. Suspendisse ornare consequat lectus. In est risus, auctor sed, tristique in, tempus sit amet, sem.","salary":"$274408.49","skills":"Euthanasia"},
{"id":133,"job_title":"VP Quality Control","address":"4 Loomis Road","latitude":-32.972878,"longitude":-60.6916164,"company":"D'Amore-Gerlach","description":"Pellentesque at nulla. Suspendisse potenti. Cras in purus eu magna vulputate luctus.\n\nCum sociis natoque penatibus et magnis dis parturient montes, nascetur ridiculus mus. Vivamus vestibulum sagittis sapien. Cum sociis natoque penatibus et magnis dis parturient montes, nascetur ridiculus mus.","salary":"$153875.76","skills":"GMC PrintNet T"},
{"id":134,"job_title":"Tax Accountant","address":"55016 Dorton Alley","latitude":15.7325058,"longitude":120.5726776,"company":"Bernhard-Franecki","description":"In quis justo. Maecenas rhoncus aliquam lacus. Morbi quis tortor id nulla ultrices aliquet.\n\nMaecenas leo odio, condimentum id, luctus nec, molestie sed, justo. Pellentesque viverra pede ac diam. Cras pellentesque volutpat dui.\n\nMaecenas tristique, est et tempus semper, est quam pharetra magna, ac consequat metus sapien ut nunc. Vestibulum ante ipsum primis in faucibus orci luctus et ultrices posuere cubilia Curae; Mauris viverra diam vitae quam. Suspendisse potenti.","salary":"$259514.23","skills":"Class III Medical Devices"},
{"id":135,"job_title":"Administrative Officer","address":"074 Mendota Plaza","latitude":52.9520735,"longitude":27.8819494,"company":"Harris-Fahey","description":"Phasellus sit amet erat. Nulla tempus. Vivamus in felis eu sapien cursus vestibulum.\n\nProin eu mi. Nulla ac enim. In tempor, turpis nec euismod scelerisque, quam turpis adipiscing lorem, vitae mattis nibh ligula nec sem.\n\nDuis aliquam convallis nunc. Proin at turpis a pede posuere nonummy. Integer non velit.","salary":"$245377.04","skills":"Sports Marketing"},
{"id":136,"job_title":"Professor","address":"32 Autumn Leaf Way","latitude":43.9887651,"longitude":18.1798837,"company":"Konopelski, Goyette and Bogan","description":"Praesent blandit. Nam nulla. Integer pede justo, lacinia eget, tincidunt eget, tempus vel, pede.\n\nMorbi porttitor lorem id ligula. Suspendisse ornare consequat lectus. In est risus, auctor sed, tristique in, tempus sit amet, sem.","salary":"$123073.48","skills":"Options"},
{"id":137,"job_title":"VP Sales","address":"67 Corben Point","latitude":42.9862014,"longitude":-85.625085,"company":"Sauer, Hagenes and Ledner","description":"Maecenas ut massa quis augue luctus tincidunt. Nulla mollis molestie lorem. Quisque ut erat.","salary":"$81740.63","skills":"TCL"},
{"id":138,"job_title":"Account Executive","address":"3 Elka Junction","latitude":19.0748796,"longitude":105.1726816,"company":"Moen-McGlynn","description":"Praesent id massa id nisl venenatis lacinia. Aenean sit amet justo. Morbi ut odio.\n\nCras mi pede, malesuada in, imperdiet et, commodo vulputate, justo. In blandit ultrices enim. Lorem ipsum dolor sit amet, consectetuer adipiscing elit.","salary":"$120816.22","skills":"Core FTP"},
{"id":139,"job_title":"Safety Technician I","address":"09 Mesta Place","latitude":55.3365242,"longitude":41.6303343,"company":"Tromp Inc","description":"Praesent blandit. Nam nulla. Integer pede justo, lacinia eget, tincidunt eget, tempus vel, pede.\n\nMorbi porttitor lorem id ligula. Suspendisse ornare consequat lectus. In est risus, auctor sed, tristique in, tempus sit amet, sem.","salary":"$132683.38","skills":"Geological Mapping"},
{"id":140,"job_title":"Media Manager III","address":"54 Merrick Plaza","latitude":-9.7386858,"longitude":120.182022,"company":"Schiller-Goodwin","description":"Phasellus in felis. Donec semper sapien a libero. Nam dui.\n\nProin leo odio, porttitor id, consequat in, consequat ut, nulla. Sed accumsan felis. Ut at dolor quis odio consequat varius.\n\nInteger ac leo. Pellentesque ultrices mattis odio. Donec vitae nisi.","salary":"$186184.41","skills":"Journal Entries"},
{"id":141,"job_title":"VP Accounting","address":"9 Ridgeway Trail","latitude":37.9512175,"longitude":23.4910916,"company":"Marvin, Terry and Gottlieb","description":"Duis bibendum. Morbi non quam nec dui luctus rutrum. Nulla tellus.","salary":"$163879.92","skills":"Nanoparticles"},
{"id":142,"job_title":"Human Resources Assistant III","address":"7 Vahlen Avenue","latitude":-8.7176937,"longitude":115.5625434,"company":"McLaughlin Group","description":"Morbi non lectus. Aliquam sit amet diam in magna bibendum imperdiet. Nullam orci pede, venenatis non, sodales sed, tincidunt eu, felis.","salary":"$236617.09","skills":"HSIA"},
{"id":143,"job_title":"Cost Accountant","address":"37 Fremont Circle","latitude":17.1820718,"longitude":-25.0658748,"company":"D'Amore Group","description":"Maecenas ut massa quis augue luctus tincidunt. Nulla mollis molestie lorem. Quisque ut erat.","salary":"$278907.77","skills":"MDL"},
{"id":144,"job_title":"Health Coach IV","address":"6785 Delaware Lane","latitude":31.487889,"longitude":118.136378,"company":"Wolf and Sons","description":"Nam ultrices, libero non mattis pulvinar, nulla pede ullamcorper augue, a suscipit nulla elit ac nulla. Sed vel enim sit amet nunc viverra dapibus. Nulla suscipit ligula in lacus.","salary":"$160510.29","skills":"IICRC Certifications"},
{"id":145,"job_title":"Financial Analyst","address":"445 Dixon Alley","latitude":-0.0917016,"longitude":34.7679568,"company":"Carroll-Hoppe","description":"Curabitur gravida nisi at nibh. In hac habitasse platea dictumst. Aliquam augue quam, sollicitudin vitae, consectetuer eget, rutrum at, lorem.\n\nInteger tincidunt ante vel ipsum. Praesent blandit lacinia erat. Vestibulum sed magna at nunc commodo placerat.\n\nPraesent blandit. Nam nulla. Integer pede justo, lacinia eget, tincidunt eget, tempus vel, pede.","salary":"$218382.02","skills":"Navigation"},
{"id":146,"job_title":"Senior Cost Accountant","address":"0 Springs Terrace","latitude":34.40744,"longitude":70.63937,"company":"Vandervort, Cruickshank and Hand","description":"Vestibulum quam sapien, varius ut, blandit non, interdum in, ante. Vestibulum ante ipsum primis in faucibus orci luctus et ultrices posuere cubilia Curae; Duis faucibus accumsan odio. Curabitur convallis.","salary":"$285092.86","skills":"Urban Planning"},
{"id":147,"job_title":"VP Marketing","address":"6000 Monument Parkway","latitude":27.720727,"longitude":118.132068,"company":"MacGyver and Sons","description":"Cum sociis natoque penatibus et magnis dis parturient montes, nascetur ridiculus mus. Vivamus vestibulum sagittis sapien. Cum sociis natoque penatibus et magnis dis parturient montes, nascetur ridiculus mus.\n\nEtiam vel augue. Vestibulum rutrum rutrum neque. Aenean auctor gravida sem.\n\nPraesent id massa id nisl venenatis lacinia. Aenean sit amet justo. Morbi ut odio.","salary":"$182854.99","skills":"Bridge"},
{"id":148,"job_title":"Financial Advisor","address":"810 Troy Parkway","latitude":43.2837871,"longitude":46.4531554,"company":"O'Reilly Group","description":"Sed ante. Vivamus tortor. Duis mattis egestas metus.","salary":"$136278.22","skills":"Oil &amp; Gas"},
{"id":149,"job_title":"VP Marketing","address":"6 Erie Crossing","latitude":38.4894305,"longitude":47.0683575,"company":"Bergstrom Group","description":"Suspendisse potenti. In eleifend quam a odio. In hac habitasse platea dictumst.\n\nMaecenas ut massa quis augue luctus tincidunt. Nulla mollis molestie lorem. Quisque ut erat.\n\nCurabitur gravida nisi at nibh. In hac habitasse platea dictumst. Aliquam augue quam, sollicitudin vitae, consectetuer eget, rutrum at, lorem.","salary":"$62509.76","skills":"Trimble GPS"},
{"id":150,"job_title":"Budget/Accounting Analyst II","address":"273 Dorton Park","latitude":34.0953553,"longitude":49.7013486,"company":"Leuschke and Sons","description":"Morbi porttitor lorem id ligula. Suspendisse ornare consequat lectus. In est risus, auctor sed, tristique in, tempus sit amet, sem.\n\nFusce consequat. Nulla nisl. Nunc nisl.\n\nDuis bibendum, felis sed interdum venenatis, turpis enim blandit mi, in porttitor pede justo eu massa. Donec dapibus. Duis at velit eu est congue elementum.","salary":"$266610.43","skills":"Electricity"},
{"id":151,"job_title":"Librarian","address":"7234 Drewry Circle","latitude":54.1463269,"longitude":12.1186173,"company":"Wyman Group","description":"Phasellus sit amet erat. Nulla tempus. Vivamus in felis eu sapien cursus vestibulum.\n\nProin eu mi. Nulla ac enim. In tempor, turpis nec euismod scelerisque, quam turpis adipiscing lorem, vitae mattis nibh ligula nec sem.\n\nDuis aliquam convallis nunc. Proin at turpis a pede posuere nonummy. Integer non velit.","salary":"$242001.75","skills":"VXML"},
{"id":152,"job_title":"Registered Nurse","address":"53 Northfield Center","latitude":-17.8938032,"longitude":-39.6930912,"company":"Batz, Howell and Herman","description":"Phasellus sit amet erat. Nulla tempus. Vivamus in felis eu sapien cursus vestibulum.\n\nProin eu mi. Nulla ac enim. In tempor, turpis nec euismod scelerisque, quam turpis adipiscing lorem, vitae mattis nibh ligula nec sem.\n\nDuis aliquam convallis nunc. Proin at turpis a pede posuere nonummy. Integer non velit.","salary":"$138713.17","skills":"Gastroenterology"},
{"id":153,"job_title":"Database Administrator III","address":"6517 Swallow Street","latitude":60.9501559,"longitude":21.444609,"company":"Barton, Hansen and Okuneva","description":"Quisque id justo sit amet sapien dignissim vestibulum. Vestibulum ante ipsum primis in faucibus orci luctus et ultrices posuere cubilia Curae; Nulla dapibus dolor vel est. Donec odio justo, sollicitudin ut, suscipit a, feugiat et, eros.\n\nVestibulum ac est lacinia nisi venenatis tristique. Fusce congue, diam id ornare imperdiet, sapien urna pretium nisl, ut volutpat sapien arcu sed augue. Aliquam erat volutpat.","salary":"$52210.19","skills":"Windows 7"},
{"id":154,"job_title":"Junior Executive","address":"1 Vermont Terrace","latitude":-7.1501862,"longitude":108.8105899,"company":"Cassin, Witting and Ondricka","description":"Maecenas leo odio, condimentum id, luctus nec, molestie sed, justo. Pellentesque viverra pede ac diam. Cras pellentesque volutpat dui.\n\nMaecenas tristique, est et tempus semper, est quam pharetra magna, ac consequat metus sapien ut nunc. Vestibulum ante ipsum primis in faucibus orci luctus et ultrices posuere cubilia Curae; Mauris viverra diam vitae quam. Suspendisse potenti.\n\nNullam porttitor lacus at turpis. Donec posuere metus vitae ipsum. Aliquam non mauris.","salary":"$191601.30","skills":"Requirements Analysis"},
{"id":155,"job_title":"Data Coordiator","address":"2 Dapin Center","latitude":22.691253,"longitude":114.346251,"company":"Brekke LLC","description":"Lorem ipsum dolor sit amet, consectetuer adipiscing elit. Proin risus. Praesent lectus.","salary":"$282592.70","skills":"ETAP"},
{"id":156,"job_title":"Software Test Engineer I","address":"0484 Iowa Trail","latitude":-7.5145399,"longitude":112.7330892,"company":"D'Amore-Moore","description":"Proin leo odio, porttitor id, consequat in, consequat ut, nulla. Sed accumsan felis. Ut at dolor quis odio consequat varius.","salary":"$279117.91","skills":"Knowledge-hungry Learner"},
{"id":157,"job_title":"Dental Hygienist","address":"658 Packers Junction","latitude":41.6088994,"longitude":-8.7234712,"company":"Hansen LLC","description":"Nullam sit amet turpis elementum ligula vehicula consequat. Morbi a ipsum. Integer a nibh.\n\nIn quis justo. Maecenas rhoncus aliquam lacus. Morbi quis tortor id nulla ultrices aliquet.\n\nMaecenas leo odio, condimentum id, luctus nec, molestie sed, justo. Pellentesque viverra pede ac diam. Cras pellentesque volutpat dui.","salary":"$158041.19","skills":"NCARB"},
{"id":158,"job_title":"Statistician IV","address":"91945 Scofield Terrace","latitude":45.2224944,"longitude":21.1806058,"company":"Koch Inc","description":"Duis consequat dui nec nisi volutpat eleifend. Donec ut dolor. Morbi vel lectus in quam fringilla rhoncus.","salary":"$85418.78","skills":"Digital TV"},
{"id":159,"job_title":"Professor","address":"47118 Paget Park","latitude":33.76,"longitude":-84.39,"company":"Grant LLC","description":"Sed ante. Vivamus tortor. Duis mattis egestas metus.","salary":"$134629.45","skills":"Equity Trading"},
{"id":160,"job_title":"Sales Associate","address":"8 Old Shore Hill","latitude":37.114157,"longitude":79.922211,"company":"Hermiston Inc","description":"Nullam sit amet turpis elementum ligula vehicula consequat. Morbi a ipsum. Integer a nibh.","salary":"$207329.12","skills":"Rural Community Development"},
{"id":161,"job_title":"Engineer III","address":"4 Southridge Terrace","latitude":43.4931556,"longitude":5.3698187,"company":"Tremblay-Reichel","description":"Morbi non lectus. Aliquam sit amet diam in magna bibendum imperdiet. Nullam orci pede, venenatis non, sodales sed, tincidunt eu, felis.\n\nFusce posuere felis sed lacus. Morbi sem mauris, laoreet ut, rhoncus aliquet, pulvinar sed, nisl. Nunc rhoncus dui vel sem.\n\nSed sagittis. Nam congue, risus semper porta volutpat, quam pede lobortis ligula, sit amet eleifend pede libero quis orci. Nullam molestie nibh in lectus.","salary":"$200106.89","skills":"Hybrid Cloud"},
{"id":162,"job_title":"Quality Control Specialist","address":"65 Lyons Parkway","latitude":-9.5701,"longitude":124.3556,"company":"Prosacco, VonRueden and Herzog","description":"Proin eu mi. Nulla ac enim. In tempor, turpis nec euismod scelerisque, quam turpis adipiscing lorem, vitae mattis nibh ligula nec sem.\n\nDuis aliquam convallis nunc. Proin at turpis a pede posuere nonummy. Integer non velit.\n\nDonec diam neque, vestibulum eget, vulputate ut, ultrices vel, augue. Vestibulum ante ipsum primis in faucibus orci luctus et ultrices posuere cubilia Curae; Donec pharetra, magna vestibulum aliquet ultrices, erat tortor sollicitudin mi, sit amet lobortis sapien sapien non mi. Integer ac neque.","salary":"$35855.98","skills":"Kinesiology"},
{"id":163,"job_title":"Chemical Engineer","address":"9077 Service Place","latitude":23.3794116,"longitude":104.2268717,"company":"Donnelly, Douglas and Beier","description":"Quisque porta volutpat erat. Quisque erat eros, viverra eget, congue eget, semper rutrum, nulla. Nunc purus.\n\nPhasellus in felis. Donec semper sapien a libero. Nam dui.","salary":"$179028.11","skills":"LCD Projectors"},
{"id":164,"job_title":"Human Resources Assistant I","address":"50 Lukken Place","latitude":14.5716986,"longitude":121.026941,"company":"Berge Group","description":"Fusce consequat. Nulla nisl. Nunc nisl.","salary":"$170810.85","skills":"NDIS"},
{"id":165,"job_title":"Account Representative I","address":"8414 Manufacturers Street","latitude":26.5627867,"longitude":54.888679,"company":"Schowalter, Prosacco and Hettinger","description":"Cras mi pede, malesuada in, imperdiet et, commodo vulputate, justo. In blandit ultrices enim. Lorem ipsum dolor sit amet, consectetuer adipiscing elit.\n\nProin interdum mauris non ligula pellentesque ultrices. Phasellus id sapien in sapien iaculis congue. Vivamus metus arcu, adipiscing molestie, hendrerit at, vulputate vitae, nisl.","salary":"$203025.24","skills":"Military Experience"},
{"id":166,"job_title":"Financial Advisor","address":"692 Hovde Court","latitude":42.7415586,"longitude":-84.5050878,"company":"Weber-Beatty","description":"Maecenas leo odio, condimentum id, luctus nec, molestie sed, justo. Pellentesque viverra pede ac diam. Cras pellentesque volutpat dui.","salary":"$122512.10","skills":"Railway"},
{"id":167,"job_title":"Senior Financial Analyst","address":"8278 Mayfield Court","latitude":34.7390267,"longitude":118.4065758,"company":"Jones and Sons","description":"Duis aliquam convallis nunc. Proin at turpis a pede posuere nonummy. Integer non velit.\n\nDonec diam neque, vestibulum eget, vulputate ut, ultrices vel, augue. Vestibulum ante ipsum primis in faucibus orci luctus et ultrices posuere cubilia Curae; Donec pharetra, magna vestibulum aliquet ultrices, erat tortor sollicitudin mi, sit amet lobortis sapien sapien non mi. Integer ac neque.","salary":"$199161.20","skills":"Political Science"},
{"id":168,"job_title":"Social Worker","address":"6 Sherman Crossing","latitude":20.5479443,"longitude":-97.4513197,"company":"Crona LLC","description":"Proin leo odio, porttitor id, consequat in, consequat ut, nulla. Sed accumsan felis. Ut at dolor quis odio consequat varius.\n\nInteger ac leo. Pellentesque ultrices mattis odio. Donec vitae nisi.","salary":"$70300.49","skills":"HCSS"},
{"id":169,"job_title":"VP Accounting","address":"7 Jenifer Center","latitude":49.8958649,"longitude":18.5477977,"company":"Stiedemann-Greenfelder","description":"Cum sociis natoque penatibus et magnis dis parturient montes, nascetur ridiculus mus. Vivamus vestibulum sagittis sapien. Cum sociis natoque penatibus et magnis dis parturient montes, nascetur ridiculus mus.\n\nEtiam vel augue. Vestibulum rutrum rutrum neque. Aenean auctor gravida sem.","salary":"$58877.81","skills":"CNC Programming"},
{"id":170,"job_title":"Assistant Professor","address":"74813 Bluestem Pass","latitude":34.472679,"longitude":107.36884,"company":"Rogahn Inc","description":"Donec diam neque, vestibulum eget, vulputate ut, ultrices vel, augue. Vestibulum ante ipsum primis in faucibus orci luctus et ultrices posuere cubilia Curae; Donec pharetra, magna vestibulum aliquet ultrices, erat tortor sollicitudin mi, sit amet lobortis sapien sapien non mi. Integer ac neque.","salary":"$225640.21","skills":"DC Circuits"},
{"id":171,"job_title":"Environmental Tech","address":"2 Vermont Terrace","latitude":51.6781161,"longitude":79.7893754,"company":"Jenkins LLC","description":"Nullam porttitor lacus at turpis. Donec posuere metus vitae ipsum. Aliquam non mauris.\n\nMorbi non lectus. Aliquam sit amet diam in magna bibendum imperdiet. Nullam orci pede, venenatis non, sodales sed, tincidunt eu, felis.","salary":"$89823.61","skills":"Air Traffic Control"},
{"id":172,"job_title":"Professor","address":"52 Annamark Avenue","latitude":14.4833291,"longitude":-89.0023961,"company":"Walsh, Koch and Lemke","description":"Duis bibendum, felis sed interdum venenatis, turpis enim blandit mi, in porttitor pede justo eu massa. Donec dapibus. Duis at velit eu est congue elementum.","salary":"$104288.09","skills":"Coaching"},
{"id":173,"job_title":"Civil Engineer","address":"2 Sunbrook Pass","latitude":-9.4542,"longitude":119.2271,"company":"Stanton-Howe","description":"In sagittis dui vel nisl. Duis ac nibh. Fusce lacus purus, aliquet at, feugiat non, pretium quis, lectus.\n\nSuspendisse potenti. In eleifend quam a odio. In hac habitasse platea dictumst.\n\nMaecenas ut massa quis augue luctus tincidunt. Nulla mollis molestie lorem. Quisque ut erat.","salary":"$96716.04","skills":"Talent Acquisition"},
{"id":174,"job_title":"Marketing Assistant","address":"10 Grasskamp Junction","latitude":44.596097,"longitude":129.591591,"company":"Keeling-Erdman","description":"In hac habitasse platea dictumst. Morbi vestibulum, velit id pretium iaculis, diam erat fermentum justo, nec condimentum neque sapien placerat ante. Nulla justo.","salary":"$144984.02","skills":"Weddings"},
{"id":175,"job_title":"Recruiting Manager","address":"296 Lunder Lane","latitude":31.126412,"longitude":119.179656,"company":"Bailey Inc","description":"In quis justo. Maecenas rhoncus aliquam lacus. Morbi quis tortor id nulla ultrices aliquet.\n\nMaecenas leo odio, condimentum id, luctus nec, molestie sed, justo. Pellentesque viverra pede ac diam. Cras pellentesque volutpat dui.","salary":"$62456.84","skills":"DME"},
{"id":176,"job_title":"Internal Auditor","address":"5862 Dakota Circle","latitude":45.7031383,"longitude":14.5961993,"company":"Feeney, Reinger and Hettinger","description":"In hac habitasse platea dictumst. Etiam faucibus cursus urna. Ut tellus.\n\nNulla ut erat id mauris vulputate elementum. Nullam varius. Nulla facilisi.\n\nCras non velit nec nisi vulputate nonummy. Maecenas tincidunt lacus at velit. Vivamus vel nulla eget eros elementum pellentesque.","salary":"$231112.69","skills":"News Writing"},
{"id":177,"job_title":"Recruiter","address":"89882 Northfield Hill","latitude":35.1529042,"longitude":33.2110414,"company":"McClure, Gerlach and Swaniawski","description":"Nulla ut erat id mauris vulputate elementum. Nullam varius. Nulla facilisi.\n\nCras non velit nec nisi vulputate nonummy. Maecenas tincidunt lacus at velit. Vivamus vel nulla eget eros elementum pellentesque.","salary":"$116944.32","skills":"Ministry Of Defence"},
{"id":178,"job_title":"Pharmacist","address":"41 Vera Point","latitude":-22.5905906,"longitude":-46.5282973,"company":"Ruecker and Sons","description":"Sed ante. Vivamus tortor. Duis mattis egestas metus.","salary":"$80482.52","skills":"EU Funding"},
{"id":179,"job_title":"Software Consultant","address":"0088 Mayfield Center","latitude":18.9201578,"longitude":-99.1802147,"company":"Koelpin-Raynor","description":"Maecenas ut massa quis augue luctus tincidunt. Nulla mollis molestie lorem. Quisque ut erat.\n\nCurabitur gravida nisi at nibh. In hac habitasse platea dictumst. Aliquam augue quam, sollicitudin vitae, consectetuer eget, rutrum at, lorem.","salary":"$183530.39","skills":"Yachting"},
{"id":180,"job_title":"Automation Specialist III","address":"5 Fisk Drive","latitude":52.1155638,"longitude":16.3514938,"company":"Dare-Gerhold","description":"Integer tincidunt ante vel ipsum. Praesent blandit lacinia erat. Vestibulum sed magna at nunc commodo placerat.","salary":"$83230.05","skills":"TK Solver"},
{"id":181,"job_title":"Software Consultant","address":"29596 Maryland Way","latitude":33.048227,"longitude":120.575443,"company":"Emmerich-Herzog","description":"Sed sagittis. Nam congue, risus semper porta volutpat, quam pede lobortis ligula, sit amet eleifend pede libero quis orci. Nullam molestie nibh in lectus.\n\nPellentesque at nulla. Suspendisse potenti. Cras in purus eu magna vulputate luctus.","salary":"$289052.70","skills":"UV-Vis-NIR"},
{"id":182,"job_title":"Media Manager IV","address":"239 Eastlawn Plaza","latitude":30.572815,"longitude":104.066801,"company":"Hamill and Sons","description":"Duis consequat dui nec nisi volutpat eleifend. Donec ut dolor. Morbi vel lectus in quam fringilla rhoncus.","salary":"$34462.88","skills":"Revenue Cycle"},
{"id":183,"job_title":"Senior Quality Engineer","address":"130 Dryden Way","latitude":7.2077348,"longitude":100.595029,"company":"Veum Group","description":"Duis consequat dui nec nisi volutpat eleifend. Donec ut dolor. Morbi vel lectus in quam fringilla rhoncus.","salary":"$78678.53","skills":"GML"},
{"id":184,"job_title":"Automation Specialist III","address":"39 Eagle Crest Trail","latitude":17.9944819,"longitude":-94.5321473,"company":"Wiegand-Berge","description":"Quisque porta volutpat erat. Quisque erat eros, viverra eget, congue eget, semper rutrum, nulla. Nunc purus.\n\nPhasellus in felis. Donec semper sapien a libero. Nam dui.\n\nProin leo odio, porttitor id, consequat in, consequat ut, nulla. Sed accumsan felis. Ut at dolor quis odio consequat varius.","salary":"$83631.62","skills":"Downstream Oil &amp; Gas"},
{"id":185,"job_title":"Web Designer III","address":"4485 Arapahoe Parkway","latitude":9.939624,"longitude":126.065213,"company":"Konopelski-Hoppe","description":"Maecenas ut massa quis augue luctus tincidunt. Nulla mollis molestie lorem. Quisque ut erat.\n\nCurabitur gravida nisi at nibh. In hac habitasse platea dictumst. Aliquam augue quam, sollicitudin vitae, consectetuer eget, rutrum at, lorem.\n\nInteger tincidunt ante vel ipsum. Praesent blandit lacinia erat. Vestibulum sed magna at nunc commodo placerat.","salary":"$32872.65","skills":"Public Safety"},
{"id":186,"job_title":"Structural Engineer","address":"52 Waxwing Plaza","latitude":49.895309,"longitude":6.0925959,"company":"Rath, Spinka and Dietrich","description":"Cum sociis natoque penatibus et magnis dis parturient montes, nascetur ridiculus mus. Vivamus vestibulum sagittis sapien. Cum sociis natoque penatibus et magnis dis parturient montes, nascetur ridiculus mus.\n\nEtiam vel augue. Vestibulum rutrum rutrum neque. Aenean auctor gravida sem.","salary":"$171553.78","skills":"Qmail"},
{"id":187,"job_title":"Software Engineer II","address":"06 Moland Trail","latitude":41.5024723,"longitude":-8.3487249,"company":"Langosh-Luettgen","description":"Nam ultrices, libero non mattis pulvinar, nulla pede ullamcorper augue, a suscipit nulla elit ac nulla. Sed vel enim sit amet nunc viverra dapibus. Nulla suscipit ligula in lacus.","salary":"$233922.32","skills":"Audio Typing"},
{"id":188,"job_title":"Research Nurse","address":"768 Hoard Pass","latitude":38.1261246,"longitude":23.8707783,"company":"Tillman-Borer","description":"Duis bibendum, felis sed interdum venenatis, turpis enim blandit mi, in porttitor pede justo eu massa. Donec dapibus. Duis at velit eu est congue elementum.\n\nIn hac habitasse platea dictumst. Morbi vestibulum, velit id pretium iaculis, diam erat fermentum justo, nec condimentum neque sapien placerat ante. Nulla justo.","salary":"$234681.33","skills":"DV"},
{"id":189,"job_title":"Occupational Therapist","address":"01 Gina Alley","latitude":43.4717283,"longitude":-3.7866915,"company":"Bins, Lemke and Boyer","description":"Integer tincidunt ante vel ipsum. Praesent blandit lacinia erat. Vestibulum sed magna at nunc commodo placerat.","salary":"$250303.75","skills":"JPEG"},
{"id":190,"job_title":"Technical Writer","address":"5327 Darwin Drive","latitude":34.91914,"longitude":71.09863,"company":"Durgan LLC","description":"Nulla ut erat id mauris vulputate elementum. Nullam varius. Nulla facilisi.\n\nCras non velit nec nisi vulputate nonummy. Maecenas tincidunt lacus at velit. Vivamus vel nulla eget eros elementum pellentesque.","salary":"$59207.07","skills":"Performance Tuning"},
{"id":191,"job_title":"Sales Associate","address":"2983 Weeping Birch Avenue","latitude":31.026394,"longitude":103.757315,"company":"Bogan Group","description":"Phasellus in felis. Donec semper sapien a libero. Nam dui.\n\nProin leo odio, porttitor id, consequat in, consequat ut, nulla. Sed accumsan felis. Ut at dolor quis odio consequat varius.","salary":"$75328.42","skills":"HSQE"},
{"id":192,"job_title":"Financial Analyst","address":"2295 Monument Parkway","latitude":20.4619152,"longitude":94.5624426,"company":"Bergnaum, Beer and Ward","description":"Etiam vel augue. Vestibulum rutrum rutrum neque. Aenean auctor gravida sem.\n\nPraesent id massa id nisl venenatis lacinia. Aenean sit amet justo. Morbi ut odio.","salary":"$50547.28","skills":"HSSE"},
{"id":193,"job_title":"Tax Accountant","address":"60 Canary Park","latitude":-6.2377312,"longitude":107.0568962,"company":"Goodwin-Stiedemann","description":"Nulla ut erat id mauris vulputate elementum. Nullam varius. Nulla facilisi.\n\nCras non velit nec nisi vulputate nonummy. Maecenas tincidunt lacus at velit. Vivamus vel nulla eget eros elementum pellentesque.","salary":"$70417.95","skills":"American Sign Language"},
{"id":194,"job_title":"Information Systems Manager","address":"5239 Sommers Crossing","latitude":18.455503,"longitude":-70.202889,"company":"Adams-Conn","description":"In hac habitasse platea dictumst. Morbi vestibulum, velit id pretium iaculis, diam erat fermentum justo, nec condimentum neque sapien placerat ante. Nulla justo.\n\nAliquam quis turpis eget elit sodales scelerisque. Mauris sit amet eros. Suspendisse accumsan tortor quis turpis.","salary":"$53999.65","skills":"BPML"},
{"id":195,"job_title":"Quality Control Specialist","address":"1233 Manley Lane","latitude":50.0534923,"longitude":5.9177071,"company":"Hahn, Emmerich and Borer","description":"Cras mi pede, malesuada in, imperdiet et, commodo vulputate, justo. In blandit ultrices enim. Lorem ipsum dolor sit amet, consectetuer adipiscing elit.\n\nProin interdum mauris non ligula pellentesque ultrices. Phasellus id sapien in sapien iaculis congue. Vivamus metus arcu, adipiscing molestie, hendrerit at, vulputate vitae, nisl.\n\nAenean lectus. Pellentesque eget nunc. Donec quis orci eget orci vehicula condimentum.","salary":"$227654.86","skills":"iWay"},
{"id":196,"job_title":"Computer Systems Analyst III","address":"48065 Cardinal Parkway","latitude":43.8371234,"longitude":21.9598032,"company":"Hauck-Mayert","description":"Cras non velit nec nisi vulputate nonummy. Maecenas tincidunt lacus at velit. Vivamus vel nulla eget eros elementum pellentesque.\n\nQuisque porta volutpat erat. Quisque erat eros, viverra eget, congue eget, semper rutrum, nulla. Nunc purus.","salary":"$99101.84","skills":"Aesthetics"},
{"id":197,"job_title":"Business Systems Development Analyst","address":"148 Forster Road","latitude":29.852891,"longitude":114.298711,"company":"Brown, Thompson and Leannon","description":"Aenean fermentum. Donec ut mauris eget massa tempor convallis. Nulla neque libero, convallis eget, eleifend luctus, ultricies eu, nibh.\n\nQuisque id justo sit amet sapien dignissim vestibulum. Vestibulum ante ipsum primis in faucibus orci luctus et ultrices posuere cubilia Curae; Nulla dapibus dolor vel est. Donec odio justo, sollicitudin ut, suscipit a, feugiat et, eros.","salary":"$132240.22","skills":"DFX"},
{"id":198,"job_title":"Operator","address":"3248 Esch Road","latitude":-0.8433489,"longitude":134.05592,"company":"Heathcote-Casper","description":"Aenean lectus. Pellentesque eget nunc. Donec quis orci eget orci vehicula condimentum.\n\nCurabitur in libero ut massa volutpat convallis. Morbi odio odio, elementum eu, interdum eu, tincidunt in, leo. Maecenas pulvinar lobortis est.\n\nPhasellus sit amet erat. Nulla tempus. Vivamus in felis eu sapien cursus vestibulum.","salary":"$209222.88","skills":"AJAX"},
{"id":199,"job_title":"Community Outreach Specialist","address":"13967 Mockingbird Terrace","latitude":53.1944881,"longitude":20.4744829,"company":"Gutmann-Powlowski","description":"Praesent blandit. Nam nulla. Integer pede justo, lacinia eget, tincidunt eget, tempus vel, pede.","salary":"$57482.59","skills":"American English"},
{"id":200,"job_title":"General Manager","address":"0427 Ridge Oak Point","latitude":39.2274333,"longitude":-9.1706522,"company":"Mann-Grady","description":"Morbi non lectus. Aliquam sit amet diam in magna bibendum imperdiet. Nullam orci pede, venenatis non, sodales sed, tincidunt eu, felis.\n\nFusce posuere felis sed lacus. Morbi sem mauris, laoreet ut, rhoncus aliquet, pulvinar sed, nisl. Nunc rhoncus dui vel sem.\n\nSed sagittis. Nam congue, risus semper porta volutpat, quam pede lobortis ligula, sit amet eleifend pede libero quis orci. Nullam molestie nibh in lectus.","salary":"$257076.90","skills":"UK Corporation Tax"},
{"id":201,"job_title":"Sales Representative","address":"286 Glacier Hill Junction","latitude":41.2914665,"longitude":-8.270224,"company":"Hartmann, Hickle and Krajcik","description":"Quisque porta volutpat erat. Quisque erat eros, viverra eget, congue eget, semper rutrum, nulla. Nunc purus.\n\nPhasellus in felis. Donec semper sapien a libero. Nam dui.","salary":"$203539.93","skills":"NCARB"},
{"id":202,"job_title":"VP Accounting","address":"7 Daystar Junction","latitude":36.733165,"longitude":103.262152,"company":"Bernier, Davis and Reynolds","description":"Quisque porta volutpat erat. Quisque erat eros, viverra eget, congue eget, semper rutrum, nulla. Nunc purus.\n\nPhasellus in felis. Donec semper sapien a libero. Nam dui.","salary":"$260368.96","skills":"Patrol"},
{"id":203,"job_title":"Social Worker","address":"41558 Manufacturers Circle","latitude":58.3384893,"longitude":26.3128301,"company":"Sipes, Rowe and Toy","description":"Duis consequat dui nec nisi volutpat eleifend. Donec ut dolor. Morbi vel lectus in quam fringilla rhoncus.\n\nMauris enim leo, rhoncus sed, vestibulum sit amet, cursus id, turpis. Integer aliquet, massa id lobortis convallis, tortor risus dapibus augue, vel accumsan tellus nisi eu orci. Mauris lacinia sapien quis libero.","salary":"$84523.87","skills":"VJ"},
{"id":204,"job_title":"Product Engineer","address":"121 Meadow Valley Plaza","latitude":57.1691059,"longitude":45.1179687,"company":"Cassin, Dare and McClure","description":"Quisque id justo sit amet sapien dignissim vestibulum. Vestibulum ante ipsum primis in faucibus orci luctus et ultrices posuere cubilia Curae; Nulla dapibus dolor vel est. Donec odio justo, sollicitudin ut, suscipit a, feugiat et, eros.","salary":"$60769.30","skills":"Organizational Design"},
{"id":205,"job_title":"Project Manager","address":"586 Pierstorff Circle","latitude":41.45,"longitude":128.833333,"company":"Kling Inc","description":"Cras non velit nec nisi vulputate nonummy. Maecenas tincidunt lacus at velit. Vivamus vel nulla eget eros elementum pellentesque.","salary":"$226237.90","skills":"Vulnerability"},
{"id":206,"job_title":"Clinical Specialist","address":"8 Garrison Avenue","latitude":-6.2836822,"longitude":106.590819,"company":"Gottlieb, Stokes and Mitchell","description":"Nullam porttitor lacus at turpis. Donec posuere metus vitae ipsum. Aliquam non mauris.\n\nMorbi non lectus. Aliquam sit amet diam in magna bibendum imperdiet. Nullam orci pede, venenatis non, sodales sed, tincidunt eu, felis.","salary":"$70910.11","skills":"eHRPD"},
{"id":207,"job_title":"Office Assistant IV","address":"71514 Pond Park","latitude":-6.7132088,"longitude":111.359026,"company":"Roberts, Hudson and Barton","description":"Nullam porttitor lacus at turpis. Donec posuere metus vitae ipsum. Aliquam non mauris.\n\nMorbi non lectus. Aliquam sit amet diam in magna bibendum imperdiet. Nullam orci pede, venenatis non, sodales sed, tincidunt eu, felis.\n\nFusce posuere felis sed lacus. Morbi sem mauris, laoreet ut, rhoncus aliquet, pulvinar sed, nisl. Nunc rhoncus dui vel sem.","salary":"$81941.80","skills":"Wedding Photography"},
{"id":208,"job_title":"VP Quality Control","address":"1 Quincy Center","latitude":48.574041,"longitude":39.307815,"company":"Schuster, Zboncak and Lang","description":"Curabitur at ipsum ac tellus semper interdum. Mauris ullamcorper purus sit amet nulla. Quisque arcu libero, rutrum ac, lobortis vel, dapibus at, diam.","salary":"$158942.42","skills":"TBMCS"},
{"id":209,"job_title":"Project Manager","address":"154 Katie Road","latitude":52.0601406,"longitude":31.1836671,"company":"Hyatt-Hermann","description":"Duis aliquam convallis nunc. Proin at turpis a pede posuere nonummy. Integer non velit.\n\nDonec diam neque, vestibulum eget, vulputate ut, ultrices vel, augue. Vestibulum ante ipsum primis in faucibus orci luctus et ultrices posuere cubilia Curae; Donec pharetra, magna vestibulum aliquet ultrices, erat tortor sollicitudin mi, sit amet lobortis sapien sapien non mi. Integer ac neque.\n\nDuis bibendum. Morbi non quam nec dui luctus rutrum. Nulla tellus.","salary":"$263081.96","skills":"Farms"},
{"id":210,"job_title":"Food Chemist","address":"259 Nobel Park","latitude":19.3579802,"longitude":-99.0806088,"company":"Prosacco-Hoppe","description":"In sagittis dui vel nisl. Duis ac nibh. Fusce lacus purus, aliquet at, feugiat non, pretium quis, lectus.\n\nSuspendisse potenti. In eleifend quam a odio. In hac habitasse platea dictumst.","salary":"$276505.81","skills":"NYSE"},
{"id":211,"job_title":"Administrative Assistant IV","address":"1219 Troy Park","latitude":-34.5595896,"longitude":-58.6022596,"company":"Klocko Inc","description":"Curabitur at ipsum ac tellus semper interdum. Mauris ullamcorper purus sit amet nulla. Quisque arcu libero, rutrum ac, lobortis vel, dapibus at, diam.","salary":"$287869.07","skills":"PTMS"},
{"id":212,"job_title":"Media Manager II","address":"431 Weeping Birch Junction","latitude":-12.0904353,"longitude":-77.069999,"company":"Frami LLC","description":"Aliquam quis turpis eget elit sodales scelerisque. Mauris sit amet eros. Suspendisse accumsan tortor quis turpis.","salary":"$260072.71","skills":"Grassroots"},
{"id":213,"job_title":"Staff Scientist","address":"08 Rigney Parkway","latitude":45.1611659,"longitude":20.7866062,"company":"Weissnat, Steuber and Effertz","description":"Duis consequat dui nec nisi volutpat eleifend. Donec ut dolor. Morbi vel lectus in quam fringilla rhoncus.\n\nMauris enim leo, rhoncus sed, vestibulum sit amet, cursus id, turpis. Integer aliquet, massa id lobortis convallis, tortor risus dapibus augue, vel accumsan tellus nisi eu orci. Mauris lacinia sapien quis libero.\n\nNullam sit amet turpis elementum ligula vehicula consequat. Morbi a ipsum. Integer a nibh.","salary":"$227754.62","skills":"Drug Discovery"},
{"id":214,"job_title":"Analyst Programmer","address":"50808 Moland Trail","latitude":39.084828,"longitude":117.185967,"company":"Muller-Sawayn","description":"Maecenas ut massa quis augue luctus tincidunt. Nulla mollis molestie lorem. Quisque ut erat.\n\nCurabitur gravida nisi at nibh. In hac habitasse platea dictumst. Aliquam augue quam, sollicitudin vitae, consectetuer eget, rutrum at, lorem.\n\nInteger tincidunt ante vel ipsum. Praesent blandit lacinia erat. Vestibulum sed magna at nunc commodo placerat.","salary":"$202946.66","skills":"NG-SDH"},
{"id":215,"job_title":"Community Outreach Specialist","address":"79 Scoville Circle","latitude":26.1288392,"longitude":127.6681281,"company":"Dickens-Collins","description":"Cum sociis natoque penatibus et magnis dis parturient montes, nascetur ridiculus mus. Vivamus vestibulum sagittis sapien. Cum sociis natoque penatibus et magnis dis parturient montes, nascetur ridiculus mus.\n\nEtiam vel augue. Vestibulum rutrum rutrum neque. Aenean auctor gravida sem.","salary":"$117908.47","skills":"Target Identification"},